[
  {
    "id": "CONCESSION_001_UNKNOWN_0",
    "name": "DALMOR S.A.",
    "address": "ul. Hryniewickiego 10",
    "postalCode": "81-340",
    "city": "Gdynia",
    "province": "pomorskie",
    "county": "gdyński",
    "municipality": "Gdynia",
    "installationType": "UNKNOWN",
    "registrationDate": "",
    "validFrom": "",
    "validTo": "",
    "regon": "",
    "nip": "",
    "exciseNumber": "",
    "fileUrl": "",
    "coordinates": [
      54.51841866101177,
      18.52994447527664
    ],
    "dataType": "CONCESSION",
    "category": "intermediary",
    "subcategory": "Sprzedawcy zobowiązani"
  },
  {
    "id": "CONCESSION_002_UNKNOWN_1",
    "name": "Górażdże Cement S.A.",
    "address": "ul. Cementowa 1",
    "postalCode": "47-316",
    "city": "Górażdże",
    "province": "mazowieckie",
    "county": "nieznany",
    "municipality": "Góra Kalwaria",
    "installationType": "UNKNOWN",
    "registrationDate": "",
    "validFrom": "",
    "validTo": "",
    "regon": "",
    "nip": "",
    "exciseNumber": "",
    "fileUrl": "",
    "coordinates": [
      52.02456295296106,
      21.135898671324927
    ],
    "dataType": "CONCESSION",
    "category": "intermediary",
    "subcategory": "Sprzedawcy zobowiązani"
  },
  {
    "id": "CONCESSION_003_UNKNOWN_2",
    "name": "ANWIL S.A.",
    "address": "ul. Toruńska 222",
    "postalCode": "87-805",
    "city": "Włocławek",
    "province": "kujawsko-pomorskie",
    "county": "włocławski",
    "municipality": "Włocławek",
    "installationType": "UNKNOWN",
    "registrationDate": "",
    "validFrom": "",
    "validTo": "",
    "regon": "",
    "nip": "",
    "exciseNumber": "",
    "fileUrl": "",
    "coordinates": [
      52.64856716886326,
      19.06797198272601
    ],
    "dataType": "CONCESSION",
    "category": "intermediary",
    "subcategory": "Sprzedawcy zobowiązani"
  },
  {
    "id": "CONCESSION_004_UNKNOWN_3",
    "name": "Ostrowski Zakład Ciepłowniczy S.A.",
    "address": "ul. Wysocka 57",
    "postalCode": "63-400",
    "city": "Ostrów Wielkopolski",
    "province": "mazowieckie",
    "county": "nieznany",
    "municipality": "Ostrów Wielkopolski",
    "installationType": "UNKNOWN",
    "registrationDate": "",
    "validFrom": "",
    "validTo": "",
    "regon": "",
    "nip": "",
    "exciseNumber": "",
    "fileUrl": "",
    "coordinates": [
      52.02392765581891,
      21.1348190012962
    ],
    "dataType": "CONCESSION",
    "category": "intermediary",
    "subcategory": "Sprzedawcy zobowiązani"
  },
  {
    "id": "CONCESSION_005_UNKNOWN_4",
    "name": "Zakłady Górniczo-Hutnicze \"Bolesław\" S.A.",
    "address": "ul. Kolejowa 37",
    "postalCode": "32-332",
    "city": "Bukowno",
    "province": "mazowieckie",
    "county": "nieznany",
    "municipality": "Radzanów",
    "installationType": "UNKNOWN",
    "registrationDate": "",
    "validFrom": "",
    "validTo": "",
    "regon": "",
    "nip": "",
    "exciseNumber": "",
    "fileUrl": "",
    "coordinates": [
      52.024412641464906,
      21.13635169520712
    ],
    "dataType": "CONCESSION",
    "category": "intermediary",
    "subcategory": "Sprzedawcy zobowiązani"
  },
  {
    "id": "CONCESSION_006_UNKNOWN_5",
    "name": "Przedsiębiorstwo Energetyki Cieplnej w Końskich Sp. z o. o.",
    "address": "ul. Armii Krajowej 5",
    "postalCode": "26-200",
    "city": "Końskie",
    "province": "mazowieckie",
    "county": "nieznany",
    "municipality": "Końskie",
    "installationType": "UNKNOWN",
    "registrationDate": "",
    "validFrom": "",
    "validTo": "",
    "regon": "",
    "nip": "",
    "exciseNumber": "",
    "fileUrl": "",
    "coordinates": [
      52.02489527203445,
      21.13494811099863
    ],
    "dataType": "CONCESSION",
    "category": "intermediary",
    "subcategory": "Sprzedawcy zobowiązani"
  },
  {
    "id": "CONCESSION_007_UNKNOWN_6",
    "name": "QEMETICA AGRICULTURAL SOLUTIONS POLAND S.A.",
    "address": "ul. Chemików 1",
    "postalCode": "37-310",
    "city": "Nowa Sarzyna",
    "province": "mazowieckie",
    "county": "nieznany",
    "municipality": "Góra Kalwaria",
    "installationType": "UNKNOWN",
    "registrationDate": "",
    "validFrom": "",
    "validTo": "",
    "regon": "",
    "nip": "",
    "exciseNumber": "",
    "fileUrl": "",
    "coordinates": [
      52.023673448922025,
      21.135584271090323
    ],
    "dataType": "CONCESSION",
    "category": "intermediary",
    "subcategory": "Sprzedawcy zobowiązani"
  },
  {
    "id": "CONCESSION_008_UNKNOWN_7",
    "name": "Celsa Huta Ostrowiec Sp. z o.o.",
    "address": "ul. Jana Samsonowicza 2",
    "postalCode": "27-400",
    "city": "Ostrowiec Świętokrzyski",
    "province": "mazowieckie",
    "county": "nieznany",
    "municipality": "Ostrowiec Świętokrzyski",
    "installationType": "UNKNOWN",
    "registrationDate": "",
    "validFrom": "",
    "validTo": "",
    "regon": "",
    "nip": "",
    "exciseNumber": "",
    "fileUrl": "",
    "coordinates": [
      52.025218837525266,
      21.13645334272327
    ],
    "dataType": "CONCESSION",
    "category": "intermediary",
    "subcategory": "Sprzedawcy zobowiązani"
  },
  {
    "id": "CONCESSION_009_UNKNOWN_8",
    "name": "Zakład Usług Technicznych Sp. z o.o. z siedzibą w Zagórzu",
    "address": "ul. Bieszczadzka 5",
    "postalCode": "38-540",
    "city": "Zagórz",
    "province": "mazowieckie",
    "county": "nieznany",
    "municipality": "Zagórz",
    "installationType": "UNKNOWN",
    "registrationDate": "",
    "validFrom": "",
    "validTo": "",
    "regon": "",
    "nip": "",
    "exciseNumber": "",
    "fileUrl": "",
    "coordinates": [
      52.02414263719472,
      21.135017793168057
    ],
    "dataType": "CONCESSION",
    "category": "intermediary",
    "subcategory": "Sprzedawcy zobowiązani"
  },
  {
    "id": "CONCESSION_010_UNKNOWN_9",
    "name": "Arctic Paper Kostrzyn S.A.",
    "address": "ul. Fabryczna 1",
    "postalCode": "66-470",
    "city": "Kostrzyn nad Odrą",
    "province": "mazowieckie",
    "county": "nieznany",
    "municipality": "Góra Kalwaria",
    "installationType": "UNKNOWN",
    "registrationDate": "",
    "validFrom": "",
    "validTo": "",
    "regon": "",
    "nip": "",
    "exciseNumber": "",
    "fileUrl": "",
    "coordinates": [
      52.024966292677945,
      21.136293464062977
    ],
    "dataType": "CONCESSION",
    "category": "intermediary",
    "subcategory": "Sprzedawcy zobowiązani"
  },
  {
    "id": "CONCESSION_011_UNKNOWN_10",
    "name": "Fabryka Łożysk Tocznych - Kraśnik S.A.",
    "address": "ul. Fabryczna 6",
    "postalCode": "23-204",
    "city": "Kraśnik",
    "province": "mazowieckie",
    "county": "nieznany",
    "municipality": "Kraśnik",
    "installationType": "UNKNOWN",
    "registrationDate": "",
    "validFrom": "",
    "validTo": "",
    "regon": "",
    "nip": "",
    "exciseNumber": "",
    "fileUrl": "",
    "coordinates": [
      52.9835463173808,
      20.062660019801598
    ],
    "dataType": "CONCESSION",
    "category": "intermediary",
    "subcategory": "Sprzedawcy zobowiązani"
  },
  {
    "id": "CONCESSION_012_UNKNOWN_11",
    "name": "Energomedia Sp. z o.o.",
    "address": "ul. Fabryczna 22",
    "postalCode": "32-540",
    "city": "Trzebinia",
    "province": "mazowieckie",
    "county": "nieznany",
    "municipality": "Góra Kalwaria",
    "installationType": "UNKNOWN",
    "registrationDate": "",
    "validFrom": "",
    "validTo": "",
    "regon": "",
    "nip": "",
    "exciseNumber": "",
    "fileUrl": "",
    "coordinates": [
      52.02445674532253,
      21.136193506552697
    ],
    "dataType": "CONCESSION",
    "category": "intermediary",
    "subcategory": "Sprzedawcy zobowiązani"
  },
  {
    "id": "CONCESSION_013_UNKNOWN_12",
    "name": "KGHM Polska Miedź S.A.",
    "address": "ul. M. Skłodowskiej-Curie 48",
    "postalCode": "59-301",
    "city": "Lubin",
    "province": "mazowieckie",
    "county": "nieznany",
    "municipality": "Lubin",
    "installationType": "UNKNOWN",
    "registrationDate": "",
    "validFrom": "",
    "validTo": "",
    "regon": "",
    "nip": "",
    "exciseNumber": "",
    "fileUrl": "",
    "coordinates": [
      52.024214740111674,
      21.13450245976616
    ],
    "dataType": "CONCESSION",
    "category": "intermediary",
    "subcategory": "Sprzedawcy zobowiązani"
  },
  {
    "id": "CONCESSION_014_UNKNOWN_13",
    "name": "Grupa Azoty Zakłady Chemiczne \"POLICE\" S.A.",
    "address": "ul. Kuźnicka 1",
    "postalCode": "72-010",
    "city": "Police",
    "province": "mazowieckie",
    "county": "nieznany",
    "municipality": "Warszawa",
    "installationType": "UNKNOWN",
    "registrationDate": "",
    "validFrom": "",
    "validTo": "",
    "regon": "",
    "nip": "",
    "exciseNumber": "",
    "fileUrl": "",
    "coordinates": [
      52.249543737373045,
      20.961521448343653
    ],
    "dataType": "CONCESSION",
    "category": "intermediary",
    "subcategory": "Sprzedawcy zobowiązani"
  },
  {
    "id": "CONCESSION_015_UNKNOWN_14",
    "name": "Veolia Powerline Kaczyce Sp. z o.o.",
    "address": "ul. Morcinka 17",
    "postalCode": "43-417",
    "city": "Kaczyce",
    "province": "mazowieckie",
    "county": "nieznany",
    "municipality": "Zebrzydowice",
    "installationType": "UNKNOWN",
    "registrationDate": "",
    "validFrom": "",
    "validTo": "",
    "regon": "",
    "nip": "",
    "exciseNumber": "",
    "fileUrl": "",
    "coordinates": [
      52.025314506419896,
      21.134913148480038
    ],
    "dataType": "CONCESSION",
    "category": "intermediary",
    "subcategory": "Sprzedawcy zobowiązani"
  },
  {
    "id": "CONCESSION_016_UNKNOWN_15",
    "name": "PGE Dystrybucja S.A.",
    "address": "ul. Garbarska 21A",
    "postalCode": "20-340",
    "city": "Lublin",
    "province": "lubelskie",
    "county": "lubelski",
    "municipality": "Lublin",
    "installationType": "UNKNOWN",
    "registrationDate": "",
    "validFrom": "",
    "validTo": "",
    "regon": "",
    "nip": "",
    "exciseNumber": "",
    "fileUrl": "",
    "coordinates": [
      51.24586461751126,
      22.56838319044959
    ],
    "dataType": "CONCESSION",
    "category": "intermediary",
    "subcategory": "Sprzedawcy zobowiązani"
  },
  {
    "id": "CONCESSION_017_UNKNOWN_16",
    "name": "\"Energetyka\" Sp. z o.o. z siedzibą w Lubinie",
    "address": "ul. M. Skłodowskiej-Curie 58",
    "postalCode": "59-301",
    "city": "Lubin",
    "province": "mazowieckie",
    "county": "nieznany",
    "municipality": "Lubin",
    "installationType": "UNKNOWN",
    "registrationDate": "",
    "validFrom": "",
    "validTo": "",
    "regon": "",
    "nip": "",
    "exciseNumber": "",
    "fileUrl": "",
    "coordinates": [
      52.02436317208083,
      21.13625464389025
    ],
    "dataType": "CONCESSION",
    "category": "intermediary",
    "subcategory": "Sprzedawcy zobowiązani"
  },
  {
    "id": "CONCESSION_018_UNKNOWN_17",
    "name": "Grupa Azoty Zakłady Azotowe Kędzierzyn S.A.",
    "address": "ul. Mostowa 30A",
    "postalCode": "47-220",
    "city": "Kędzierzyn-Koźle",
    "province": "mazowieckie",
    "county": "nieznany",
    "municipality": "Kędzierzyn-Koźle",
    "installationType": "UNKNOWN",
    "registrationDate": "",
    "validFrom": "",
    "validTo": "",
    "regon": "",
    "nip": "",
    "exciseNumber": "",
    "fileUrl": "",
    "coordinates": [
      52.023791360566726,
      21.1362645229763
    ],
    "dataType": "CONCESSION",
    "category": "intermediary",
    "subcategory": "Sprzedawcy zobowiązani"
  },
  {
    "id": "CONCESSION_019_UNKNOWN_18",
    "name": "Grupa Kęty S.A.",
    "address": "ul. Kościuszki 111",
    "postalCode": "32-650",
    "city": "Kęty",
    "province": "mazowieckie",
    "county": "nieznany",
    "municipality": "Góra Kalwaria",
    "installationType": "UNKNOWN",
    "registrationDate": "",
    "validFrom": "",
    "validTo": "",
    "regon": "",
    "nip": "",
    "exciseNumber": "",
    "fileUrl": "",
    "coordinates": [
      52.02458383571743,
      21.136219536567186
    ],
    "dataType": "CONCESSION",
    "category": "intermediary",
    "subcategory": "Sprzedawcy zobowiązani"
  },
  {
    "id": "CONCESSION_020_UNKNOWN_19",
    "name": "Grupa Azoty S.A.",
    "address": "ul. Kwiatkowskiego 8",
    "postalCode": "33-101",
    "city": "Tarnów",
    "province": "małopolskie",
    "county": "tarnowski",
    "municipality": "Tarnów",
    "installationType": "UNKNOWN",
    "registrationDate": "",
    "validFrom": "",
    "validTo": "",
    "regon": "",
    "nip": "",
    "exciseNumber": "",
    "fileUrl": "",
    "coordinates": [
      50.01174410894722,
      20.987704346552647
    ],
    "dataType": "CONCESSION",
    "category": "intermediary",
    "subcategory": "Sprzedawcy zobowiązani"
  },
  {
    "id": "CONCESSION_021_UNKNOWN_20",
    "name": "Enesta Sp. z o.o. w restrukturyzacji",
    "address": "ul. E. Kwiatkowskiego 1",
    "postalCode": "37-450",
    "city": "Stalowa Wola",
    "province": "lubelskie",
    "county": "nieznany",
    "municipality": "Stalowa Wola",
    "installationType": "UNKNOWN",
    "registrationDate": "",
    "validFrom": "",
    "validTo": "",
    "regon": "",
    "nip": "",
    "exciseNumber": "",
    "fileUrl": "",
    "coordinates": [
      50.56962163225474,
      22.05457565486289
    ],
    "dataType": "CONCESSION",
    "category": "intermediary",
    "subcategory": "Sprzedawcy zobowiązani"
  },
  {
    "id": "CONCESSION_022_UNKNOWN_21",
    "name": "PGE Energia Ciepła S.A.",
    "address": "ul. Złota 59",
    "postalCode": "00-120",
    "city": "Warszawa",
    "province": "mazowieckie",
    "county": "warszawski",
    "municipality": "Warszawa",
    "installationType": "UNKNOWN",
    "registrationDate": "",
    "validFrom": "",
    "validTo": "",
    "regon": "",
    "nip": "",
    "exciseNumber": "",
    "fileUrl": "",
    "coordinates": [
      52.22967284887294,
      21.012585596862657
    ],
    "dataType": "CONCESSION",
    "category": "intermediary",
    "subcategory": "Sprzedawcy zobowiązani"
  },
  {
    "id": "CONCESSION_023_UNKNOWN_22",
    "name": "Veolia Energia Poznań S.A.",
    "address": "ul. Energetyczna 3",
    "postalCode": "61-016",
    "city": "Poznań",
    "province": "wielkopolskie",
    "county": "poznański",
    "municipality": "Poznań",
    "installationType": "UNKNOWN",
    "registrationDate": "",
    "validFrom": "",
    "validTo": "",
    "regon": "",
    "nip": "",
    "exciseNumber": "",
    "fileUrl": "",
    "coordinates": [
      52.40660985450339,
      16.924979528883412
    ],
    "dataType": "CONCESSION",
    "category": "intermediary",
    "subcategory": "Sprzedawcy zobowiązani"
  },
  {
    "id": "CONCESSION_024_UNKNOWN_23",
    "name": "\"Energoserwis Kleszczów\" Sp. z o.o.",
    "address": "ul. Instalacyjna 2",
    "postalCode": "97-427",
    "city": "Rogowiec k/Bełchatowa",
    "province": "mazowieckie",
    "county": "nieznany",
    "municipality": "Góra Kalwaria",
    "installationType": "UNKNOWN",
    "registrationDate": "",
    "validFrom": "",
    "validTo": "",
    "regon": "",
    "nip": "",
    "exciseNumber": "",
    "fileUrl": "",
    "coordinates": [
      52.02366470797694,
      21.13539838079193
    ],
    "dataType": "CONCESSION",
    "category": "intermediary",
    "subcategory": "Sprzedawcy zobowiązani"
  },
  {
    "id": "CONCESSION_025_UNKNOWN_24",
    "name": "Tauron Dystrybucja S.A.",
    "address": "ul. Podgórska 25A",
    "postalCode": "31-035",
    "city": "Kraków",
    "province": "małopolskie",
    "county": "krakowski",
    "municipality": "Kraków",
    "installationType": "UNKNOWN",
    "registrationDate": "",
    "validFrom": "",
    "validTo": "",
    "regon": "",
    "nip": "",
    "exciseNumber": "",
    "fileUrl": "",
    "coordinates": [
      50.06435269610518,
      19.944369775352328
    ],
    "dataType": "CONCESSION",
    "category": "intermediary",
    "subcategory": "Sprzedawcy zobowiązani"
  },
  {
    "id": "CONCESSION_026_UNKNOWN_25",
    "name": "PGE Energetyka Kolejowa S.A.",
    "address": "ul. Hoża 63/67",
    "postalCode": "00-681",
    "city": "Warszawa",
    "province": "mazowieckie",
    "county": "warszawski",
    "municipality": "Warszawa",
    "installationType": "UNKNOWN",
    "registrationDate": "",
    "validFrom": "",
    "validTo": "",
    "regon": "",
    "nip": "",
    "exciseNumber": "",
    "fileUrl": "",
    "coordinates": [
      52.23059015641555,
      21.011222061371544
    ],
    "dataType": "CONCESSION",
    "category": "intermediary",
    "subcategory": "Sprzedawcy zobowiązani"
  },
  {
    "id": "CONCESSION_027_UNKNOWN_26",
    "name": "Zakład Usług Technicznych MEGA Sp. z o.o.",
    "address": "ul. Hetmańska 15L",
    "postalCode": "82-300",
    "city": "Elbląg",
    "province": "pomorskie",
    "county": "nieznany",
    "municipality": "Elbląg",
    "installationType": "UNKNOWN",
    "registrationDate": "",
    "validFrom": "",
    "validTo": "",
    "regon": "",
    "nip": "",
    "exciseNumber": "",
    "fileUrl": "",
    "coordinates": [
      54.15610480652905,
      19.408601342241834
    ],
    "dataType": "CONCESSION",
    "category": "intermediary",
    "subcategory": "Sprzedawcy zobowiązani"
  },
  {
    "id": "CONCESSION_028_UNKNOWN_27",
    "name": "\"Nida Media\" Sp. z o.o",
    "address": "Leszcze 15",
    "postalCode": "28-400",
    "city": "Pińczów",
    "province": "mazowieckie",
    "county": "nieznany",
    "municipality": "Góra Kalwaria",
    "installationType": "UNKNOWN",
    "registrationDate": "",
    "validFrom": "",
    "validTo": "",
    "regon": "",
    "nip": "",
    "exciseNumber": "",
    "fileUrl": "",
    "coordinates": [
      52.02548821982,
      21.13578238649492
    ],
    "dataType": "CONCESSION",
    "category": "intermediary",
    "subcategory": "Sprzedawcy zobowiązani"
  },
  {
    "id": "CONCESSION_029_UNKNOWN_28",
    "name": "Stoen Operator Sp. z o.o.",
    "address": "ul. Pory 80",
    "postalCode": "02-757",
    "city": "Warszawa",
    "province": "mazowieckie",
    "county": "warszawski",
    "municipality": "Warszawa",
    "installationType": "UNKNOWN",
    "registrationDate": "",
    "validFrom": "",
    "validTo": "",
    "regon": "",
    "nip": "",
    "exciseNumber": "",
    "fileUrl": "",
    "coordinates": [
      52.228772346215585,
      21.012628773033054
    ],
    "dataType": "CONCESSION",
    "category": "intermediary",
    "subcategory": "Sprzedawcy zobowiązani"
  },
  {
    "id": "CONCESSION_030_UNKNOWN_29",
    "name": "Qemetica Soda Polska S.A.",
    "address": "ul. Fabryczna 4",
    "postalCode": "88-101",
    "city": "Inowrocław",
    "province": "mazowieckie",
    "county": "nieznany",
    "municipality": "Inowrocław",
    "installationType": "UNKNOWN",
    "registrationDate": "",
    "validFrom": "",
    "validTo": "",
    "regon": "",
    "nip": "",
    "exciseNumber": "",
    "fileUrl": "",
    "coordinates": [
      52.025212303640856,
      21.134742938495265
    ],
    "dataType": "CONCESSION",
    "category": "intermediary",
    "subcategory": "Sprzedawcy zobowiązani"
  },
  {
    "id": "CONCESSION_031_UNKNOWN_30",
    "name": "Zakłady Mechaniczne \"Bumar-Łabędy\" S.A.",
    "address": "ul. Mechaników 9",
    "postalCode": "44-109",
    "city": "Gliwice",
    "province": "śląskie",
    "county": "gliwicki",
    "municipality": "Gliwice",
    "installationType": "UNKNOWN",
    "registrationDate": "",
    "validFrom": "",
    "validTo": "",
    "regon": "",
    "nip": "",
    "exciseNumber": "",
    "fileUrl": "",
    "coordinates": [
      50.29417772217177,
      18.671994367332733
    ],
    "dataType": "CONCESSION",
    "category": "intermediary",
    "subcategory": "Sprzedawcy zobowiązani"
  },
  {
    "id": "CONCESSION_032_UNKNOWN_31",
    "name": "ENERGA-Operator S.A.",
    "address": "ul. Marynarki Polskiej 130",
    "postalCode": "80-557",
    "city": "Gdańsk",
    "province": "pomorskie",
    "county": "gdański",
    "municipality": "Gdańsk",
    "installationType": "UNKNOWN",
    "registrationDate": "",
    "validFrom": "",
    "validTo": "",
    "regon": "",
    "nip": "",
    "exciseNumber": "",
    "fileUrl": "",
    "coordinates": [
      54.35222122138462,
      18.646833020827142
    ],
    "dataType": "CONCESSION",
    "category": "intermediary",
    "subcategory": "Sprzedawcy zobowiązani"
  },
  {
    "id": "CONCESSION_033_UNKNOWN_32",
    "name": "Polenergia Dystrybucja Sp. z o.o.",
    "address": "ul. Krucza 24/26",
    "postalCode": "00-526",
    "city": "Warszawa",
    "province": "mazowieckie",
    "county": "warszawski",
    "municipality": "Warszawa",
    "installationType": "UNKNOWN",
    "registrationDate": "",
    "validFrom": "",
    "validTo": "",
    "regon": "",
    "nip": "",
    "exciseNumber": "",
    "fileUrl": "",
    "coordinates": [
      52.23039453991017,
      21.012495015219606
    ],
    "dataType": "CONCESSION",
    "category": "intermediary",
    "subcategory": "Sprzedawcy zobowiązani"
  },
  {
    "id": "CONCESSION_034_UNKNOWN_33",
    "name": "Synthos Dwory 7 Sp. z o.o.",
    "address": "ul. Chemików 1",
    "postalCode": "32-600",
    "city": "Oświęcim",
    "province": "mazowieckie",
    "county": "nieznany",
    "municipality": "Warszawa",
    "installationType": "UNKNOWN",
    "registrationDate": "",
    "validFrom": "",
    "validTo": "",
    "regon": "",
    "nip": "",
    "exciseNumber": "",
    "fileUrl": "",
    "coordinates": [
      52.24826093627984,
      21.010245069095213
    ],
    "dataType": "CONCESSION",
    "category": "intermediary",
    "subcategory": "Sprzedawcy zobowiązani"
  },
  {
    "id": "CONCESSION_035_UNKNOWN_34",
    "name": "Zamet-Budowa Maszyn S.A.",
    "address": "ul. Zagórska 83",
    "postalCode": "42-680",
    "city": "Tarnowskie Góry",
    "province": "mazowieckie",
    "county": "nieznany",
    "municipality": "Tarnowskie Góry",
    "installationType": "UNKNOWN",
    "registrationDate": "",
    "validFrom": "",
    "validTo": "",
    "regon": "",
    "nip": "",
    "exciseNumber": "",
    "fileUrl": "",
    "coordinates": [
      52.024602718128754,
      21.13591343695227
    ],
    "dataType": "CONCESSION",
    "category": "intermediary",
    "subcategory": "Sprzedawcy zobowiązani"
  },
  {
    "id": "CONCESSION_036_UNKNOWN_35",
    "name": "Zakład Energoelektryczny \"ENERGO-STIL\" Sp. z o.o.",
    "address": "ul. Walczaka 25",
    "postalCode": "66-407",
    "city": "Gorzów Wlkp",
    "province": "mazowieckie",
    "county": "nieznany",
    "municipality": "Góra Kalwaria",
    "installationType": "UNKNOWN",
    "registrationDate": "",
    "validFrom": "",
    "validTo": "",
    "regon": "",
    "nip": "",
    "exciseNumber": "",
    "fileUrl": "",
    "coordinates": [
      52.02412280018695,
      21.135799254413467
    ],
    "dataType": "CONCESSION",
    "category": "intermediary",
    "subcategory": "Sprzedawcy zobowiązani"
  },
  {
    "id": "CONCESSION_037_UNKNOWN_36",
    "name": "Zespół Elektrowni Wodnych Niedzica S.A.",
    "address": "ul. Widokowa 1",
    "postalCode": "34-441",
    "city": "Niedzica",
    "province": "mazowieckie",
    "county": "nieznany",
    "municipality": "Łapsze Niżne",
    "installationType": "UNKNOWN",
    "registrationDate": "",
    "validFrom": "",
    "validTo": "",
    "regon": "",
    "nip": "",
    "exciseNumber": "",
    "fileUrl": "",
    "coordinates": [
      52.02460066022665,
      21.136209397174333
    ],
    "dataType": "CONCESSION",
    "category": "intermediary",
    "subcategory": "Sprzedawcy zobowiązani"
  },
  {
    "id": "CONCESSION_038_UNKNOWN_37",
    "name": "JSW Koks S.A.",
    "address": "ul. Pawliczka 1",
    "postalCode": "41-800",
    "city": "Zabrze",
    "province": "śląskie",
    "county": "zabrzański",
    "municipality": "Zabrze",
    "installationType": "UNKNOWN",
    "registrationDate": "",
    "validFrom": "",
    "validTo": "",
    "regon": "",
    "nip": "",
    "exciseNumber": "",
    "fileUrl": "",
    "coordinates": [
      50.32513473378244,
      18.78496809154921
    ],
    "dataType": "CONCESSION",
    "category": "intermediary",
    "subcategory": "Sprzedawcy zobowiązani"
  },
  {
    "id": "CONCESSION_039_UNKNOWN_38",
    "name": "Zarząd Morskiego Portu Gdynia S.A.",
    "address": "ul. Rotterdamska 9",
    "postalCode": "81-337",
    "city": "Gdynia",
    "province": "pomorskie",
    "county": "gdyński",
    "municipality": "Gdynia",
    "installationType": "UNKNOWN",
    "registrationDate": "",
    "validFrom": "",
    "validTo": "",
    "regon": "",
    "nip": "",
    "exciseNumber": "",
    "fileUrl": "",
    "coordinates": [
      54.51841175558888,
      18.53046493679101
    ],
    "dataType": "CONCESSION",
    "category": "intermediary",
    "subcategory": "Sprzedawcy zobowiązani"
  },
  {
    "id": "CONCESSION_040_UNKNOWN_39",
    "name": "\"BHH Mikrohuta\" Sp. z o.o.",
    "address": "ul. Porozumienia Dąbrowskiego 1980 nr 11",
    "postalCode": "42-530",
    "city": "Dąbrowa Górnicza",
    "province": "mazowieckie",
    "county": "nieznany",
    "municipality": "Dąbrowa Górnicza",
    "installationType": "UNKNOWN",
    "registrationDate": "",
    "validFrom": "",
    "validTo": "",
    "regon": "",
    "nip": "",
    "exciseNumber": "",
    "fileUrl": "",
    "coordinates": [
      52.02440537784122,
      21.13480212630029
    ],
    "dataType": "CONCESSION",
    "category": "intermediary",
    "subcategory": "Sprzedawcy zobowiązani"
  },
  {
    "id": "CONCESSION_041_UNKNOWN_40",
    "name": "ENEA Operator Sp. z o.o.",
    "address": "ul. Strzeszyńska 58",
    "postalCode": "60-479",
    "city": "Poznań",
    "province": "wielkopolskie",
    "county": "poznański",
    "municipality": "Poznań",
    "installationType": "UNKNOWN",
    "registrationDate": "",
    "validFrom": "",
    "validTo": "",
    "regon": "",
    "nip": "",
    "exciseNumber": "",
    "fileUrl": "",
    "coordinates": [
      52.407014630966245,
      16.92470875612857
    ],
    "dataType": "CONCESSION",
    "category": "intermediary",
    "subcategory": "Sprzedawcy zobowiązani"
  },
  {
    "id": "CONCESSION_042_UNKNOWN_41",
    "name": "Towarzystwo Inwestycyjne \"Elektrownia-Wschód\" S.A.",
    "address": "ul. Frezerów 13",
    "postalCode": "20-209",
    "city": "Lublin",
    "province": "lubelskie",
    "county": "lubelski",
    "municipality": "Lublin",
    "installationType": "UNKNOWN",
    "registrationDate": "",
    "validFrom": "",
    "validTo": "",
    "regon": "",
    "nip": "",
    "exciseNumber": "",
    "fileUrl": "",
    "coordinates": [
      51.246892943112066,
      22.567540425482566
    ],
    "dataType": "CONCESSION",
    "category": "intermediary",
    "subcategory": "Sprzedawcy zobowiązani"
  },
  {
    "id": "CONCESSION_043_UNKNOWN_42",
    "name": "\"Ciepłownia Siemianowice\" Sp. z o.o.",
    "address": "ul. Olimpijska 14",
    "postalCode": "41-100",
    "city": "Siemianowice Śląskie",
    "province": "mazowieckie",
    "county": "nieznany",
    "municipality": "Siemianowice Śląskie",
    "installationType": "UNKNOWN",
    "registrationDate": "",
    "validFrom": "",
    "validTo": "",
    "regon": "",
    "nip": "",
    "exciseNumber": "",
    "fileUrl": "",
    "coordinates": [
      52.02472089024461,
      21.13623717474364
    ],
    "dataType": "CONCESSION",
    "category": "intermediary",
    "subcategory": "Sprzedawcy zobowiązani"
  },
  {
    "id": "CONCESSION_044_UNKNOWN_43",
    "name": "Korporacja Budowlana \"FADOM\" S.A.",
    "address": "ul. Boczna 6/202",
    "postalCode": "44-240",
    "city": "Żory",
    "province": "mazowieckie",
    "county": "nieznany",
    "municipality": "Żory",
    "installationType": "UNKNOWN",
    "registrationDate": "",
    "validFrom": "",
    "validTo": "",
    "regon": "",
    "nip": "",
    "exciseNumber": "",
    "fileUrl": "",
    "coordinates": [
      52.40603981772237,
      22.23434435977423
    ],
    "dataType": "CONCESSION",
    "category": "intermediary",
    "subcategory": "Sprzedawcy zobowiązani"
  },
  {
    "id": "CONCESSION_045_UNKNOWN_44",
    "name": "Katarzyna Droga, Tomasz Motyl Przedsiębiorstwo Produkcyjno-Handlowo-Usługowe \"ADM\" s.c.",
    "address": "ul. Miodowa 6",
    "postalCode": "63-500",
    "city": "Ostrzeszów",
    "province": "mazowieckie",
    "county": "nieznany",
    "municipality": "Ostrzeszów",
    "installationType": "UNKNOWN",
    "registrationDate": "",
    "validFrom": "",
    "validTo": "",
    "regon": "",
    "nip": "",
    "exciseNumber": "",
    "fileUrl": "",
    "coordinates": [
      52.02498678928532,
      21.13487075285726
    ],
    "dataType": "CONCESSION",
    "category": "intermediary",
    "subcategory": "Sprzedawcy zobowiązani"
  },
  {
    "id": "CONCESSION_046_UNKNOWN_45",
    "name": "Zakłady Tworzyw Sztucznych \"IZO-ERG\" Sp. z o.o.",
    "address": "ul. Jana Śliwki 86",
    "postalCode": "44-100",
    "city": "Gliwice",
    "province": "śląskie",
    "county": "gliwicki",
    "municipality": "Gliwice",
    "installationType": "UNKNOWN",
    "registrationDate": "",
    "validFrom": "",
    "validTo": "",
    "regon": "",
    "nip": "",
    "exciseNumber": "",
    "fileUrl": "",
    "coordinates": [
      50.29406902662742,
      18.67194831661494
    ],
    "dataType": "CONCESSION",
    "category": "intermediary",
    "subcategory": "Sprzedawcy zobowiązani"
  },
  {
    "id": "CONCESSION_047_UNKNOWN_46",
    "name": "ESV Metalchem Sp. z o.o.",
    "address": "ul. Oświęcimska 102D",
    "postalCode": "45-641",
    "city": "Opole",
    "province": "mazowieckie",
    "county": "nieznany",
    "municipality": "Radzymin",
    "installationType": "UNKNOWN",
    "registrationDate": "",
    "validFrom": "",
    "validTo": "",
    "regon": "",
    "nip": "",
    "exciseNumber": "",
    "fileUrl": "",
    "coordinates": [
      52.49202625300787,
      21.139877822259095
    ],
    "dataType": "CONCESSION",
    "category": "intermediary",
    "subcategory": "Sprzedawcy zobowiązani"
  },
  {
    "id": "CONCESSION_048_UNKNOWN_47",
    "name": "RCEkoenergia Sp. z o.o.",
    "address": "ul. Łukasiewicza 2",
    "postalCode": "43-502",
    "city": "Czechowice-Dziedzice",
    "province": "mazowieckie",
    "county": "nieznany",
    "municipality": "Czechowice-Dziedzice",
    "installationType": "UNKNOWN",
    "registrationDate": "",
    "validFrom": "",
    "validTo": "",
    "regon": "",
    "nip": "",
    "exciseNumber": "",
    "fileUrl": "",
    "coordinates": [
      52.02530064950999,
      21.135021754905647
    ],
    "dataType": "CONCESSION",
    "category": "intermediary",
    "subcategory": "Sprzedawcy zobowiązani"
  },
  {
    "id": "CONCESSION_049_UNKNOWN_48",
    "name": "EkoMedia Sp. z. o.o.",
    "address": "ul. Radomska 29",
    "postalCode": "27-200",
    "city": "Starachowice",
    "province": "mazowieckie",
    "county": "nieznany",
    "municipality": "Starachowice",
    "installationType": "UNKNOWN",
    "registrationDate": "",
    "validFrom": "",
    "validTo": "",
    "regon": "",
    "nip": "",
    "exciseNumber": "",
    "fileUrl": "",
    "coordinates": [
      52.02463653566875,
      21.134770236941957
    ],
    "dataType": "CONCESSION",
    "category": "intermediary",
    "subcategory": "Sprzedawcy zobowiązani"
  },
  {
    "id": "CONCESSION_050_UNKNOWN_49",
    "name": "Lerg S.A.",
    "address": "Pustków-Osiedle 59D",
    "postalCode": "39-206",
    "city": "Pustków-Osiedle",
    "province": "mazowieckie",
    "county": "nieznany",
    "municipality": "Góra Kalwaria",
    "installationType": "UNKNOWN",
    "registrationDate": "",
    "validFrom": "",
    "validTo": "",
    "regon": "",
    "nip": "",
    "exciseNumber": "",
    "fileUrl": "",
    "coordinates": [
      52.02441032093573,
      21.134714374641657
    ],
    "dataType": "CONCESSION",
    "category": "intermediary",
    "subcategory": "Sprzedawcy zobowiązani"
  },
  {
    "id": "CONCESSION_051_UNKNOWN_50",
    "name": "Zakład Elektryczny EL-WO Marta Żelazowska",
    "address": "ul. Bałtowska 274/2",
    "postalCode": "27-400",
    "city": "Ostrowiec Świętokrzyski",
    "province": "mazowieckie",
    "county": "nieznany",
    "municipality": "Ostrowiec Świętokrzyski",
    "installationType": "UNKNOWN",
    "registrationDate": "",
    "validFrom": "",
    "validTo": "",
    "regon": "",
    "nip": "",
    "exciseNumber": "",
    "fileUrl": "",
    "coordinates": [
      51.361806865921395,
      21.135848988432294
    ],
    "dataType": "CONCESSION",
    "category": "intermediary",
    "subcategory": "Sprzedawcy zobowiązani"
  },
  {
    "id": "CONCESSION_052_UNKNOWN_51",
    "name": "\"H. Cegielski - ENERGOCENTRUM\" Sp. z o.o.",
    "address": "ul. 28 Czerwca 1956 r. 223/229",
    "postalCode": "61-485",
    "city": "Poznań",
    "province": "wielkopolskie",
    "county": "poznański",
    "municipality": "Poznań",
    "installationType": "UNKNOWN",
    "registrationDate": "",
    "validFrom": "",
    "validTo": "",
    "regon": "",
    "nip": "",
    "exciseNumber": "",
    "fileUrl": "",
    "coordinates": [
      52.4069286875672,
      16.924846480824534
    ],
    "dataType": "CONCESSION",
    "category": "intermediary",
    "subcategory": "Sprzedawcy zobowiązani"
  },
  {
    "id": "CONCESSION_053_UNKNOWN_52",
    "name": "UNIMOT Infrastruktura Sp. z o.o.",
    "address": "ul. 3 Maja 101",
    "postalCode": "38-200",
    "city": "Jasło",
    "province": "mazowieckie",
    "county": "nieznany",
    "municipality": "Jasło",
    "installationType": "UNKNOWN",
    "registrationDate": "",
    "validFrom": "",
    "validTo": "",
    "regon": "",
    "nip": "",
    "exciseNumber": "",
    "fileUrl": "",
    "coordinates": [
      52.02520699386919,
      21.135559212875794
    ],
    "dataType": "CONCESSION",
    "category": "intermediary",
    "subcategory": "Sprzedawcy zobowiązani"
  },
  {
    "id": "CONCESSION_054_UNKNOWN_53",
    "name": "ESV Wisłosan Sp. z o.o.",
    "address": "ul. Metalowca 4",
    "postalCode": "39-460",
    "city": "Nowa Dęba",
    "province": "mazowieckie",
    "county": "nieznany",
    "municipality": "Nowa Dęba",
    "installationType": "UNKNOWN",
    "registrationDate": "",
    "validFrom": "",
    "validTo": "",
    "regon": "",
    "nip": "",
    "exciseNumber": "",
    "fileUrl": "",
    "coordinates": [
      52.02455478784855,
      21.135739913413246
    ],
    "dataType": "CONCESSION",
    "category": "intermediary",
    "subcategory": "Sprzedawcy zobowiązani"
  },
  {
    "id": "CONCESSION_055_UNKNOWN_54",
    "name": "EHN S.A.",
    "address": "ul. Jaskółek 12",
    "postalCode": "43-215",
    "city": "Studzienice",
    "province": "mazowieckie",
    "county": "nieznany",
    "municipality": "Pszczyna",
    "installationType": "UNKNOWN",
    "registrationDate": "",
    "validFrom": "",
    "validTo": "",
    "regon": "",
    "nip": "",
    "exciseNumber": "",
    "fileUrl": "",
    "coordinates": [
      52.025280237521365,
      21.13485495691107
    ],
    "dataType": "CONCESSION",
    "category": "intermediary",
    "subcategory": "Sprzedawcy zobowiązani"
  },
  {
    "id": "CONCESSION_056_UNKNOWN_55",
    "name": "Huta Bankowa Sp. z o.o.",
    "address": "ul. Sobieskiego 24",
    "postalCode": "41-300",
    "city": "Dąbrowa Górnicza",
    "province": "mazowieckie",
    "county": "nieznany",
    "municipality": "Dąbrowa Górnicza",
    "installationType": "UNKNOWN",
    "registrationDate": "",
    "validFrom": "",
    "validTo": "",
    "regon": "",
    "nip": "",
    "exciseNumber": "",
    "fileUrl": "",
    "coordinates": [
      52.02410723925487,
      21.135297134878876
    ],
    "dataType": "CONCESSION",
    "category": "intermediary",
    "subcategory": "Sprzedawcy zobowiązani"
  },
  {
    "id": "CONCESSION_057_UNKNOWN_56",
    "name": "Zakład Instalacji Elektroenergetycznych Leszek Klak",
    "address": "ul. Witkiewicza 25",
    "postalCode": "63-100",
    "city": "Śrem",
    "province": "mazowieckie",
    "county": "nieznany",
    "municipality": "Śrem",
    "installationType": "UNKNOWN",
    "registrationDate": "",
    "validFrom": "",
    "validTo": "",
    "regon": "",
    "nip": "",
    "exciseNumber": "",
    "fileUrl": "",
    "coordinates": [
      52.0253136297231,
      21.13627380560183
    ],
    "dataType": "CONCESSION",
    "category": "intermediary",
    "subcategory": "Sprzedawcy zobowiązani"
  },
  {
    "id": "CONCESSION_058_UNKNOWN_57",
    "name": "STALPRODUKT S.A.",
    "address": "ul. Wygoda 69",
    "postalCode": "32-700",
    "city": "Bochnia",
    "province": "mazowieckie",
    "county": "nieznany",
    "municipality": "Góra Kalwaria",
    "installationType": "UNKNOWN",
    "registrationDate": "",
    "validFrom": "",
    "validTo": "",
    "regon": "",
    "nip": "",
    "exciseNumber": "",
    "fileUrl": "",
    "coordinates": [
      52.0240210618631,
      21.136240210327433
    ],
    "dataType": "CONCESSION",
    "category": "intermediary",
    "subcategory": "Sprzedawcy zobowiązani"
  },
  {
    "id": "CONCESSION_059_UNKNOWN_58",
    "name": "Lewandpol ProEnergia Sp. z o.o.",
    "address": "Al. Armii Ludowej 28",
    "postalCode": "00-609",
    "city": "Warszawa",
    "province": "mazowieckie",
    "county": "warszawski",
    "municipality": "Warszawa",
    "installationType": "UNKNOWN",
    "registrationDate": "",
    "validFrom": "",
    "validTo": "",
    "regon": "",
    "nip": "",
    "exciseNumber": "",
    "fileUrl": "",
    "coordinates": [
      52.23029803985212,
      21.012264868710982
    ],
    "dataType": "CONCESSION",
    "category": "intermediary",
    "subcategory": "Sprzedawcy zobowiązani"
  },
  {
    "id": "CONCESSION_060_UNKNOWN_59",
    "name": "Wojewódzkie Przedsiębiorstwo Robót Drogowych S.A.",
    "address": "ul. Miedziana 5",
    "postalCode": "40-321",
    "city": "Katowice",
    "province": "małopolskie",
    "county": "nieznany",
    "municipality": "Katowice",
    "installationType": "UNKNOWN",
    "registrationDate": "",
    "validFrom": "",
    "validTo": "",
    "regon": "",
    "nip": "",
    "exciseNumber": "",
    "fileUrl": "",
    "coordinates": [
      50.26451438008653,
      19.0237269633413
    ],
    "dataType": "CONCESSION",
    "category": "intermediary",
    "subcategory": "Sprzedawcy zobowiązani"
  },
  {
    "id": "CONCESSION_061_UNKNOWN_60",
    "name": "Zakład Dostaw Nośników Energetycznych Sp. z o.o.",
    "address": "ul. Przemysłowa 1",
    "postalCode": "44-203",
    "city": "Rybnik",
    "province": "śląskie",
    "county": "rybnicki",
    "municipality": "Rybnik",
    "installationType": "UNKNOWN",
    "registrationDate": "",
    "validFrom": "",
    "validTo": "",
    "regon": "",
    "nip": "",
    "exciseNumber": "",
    "fileUrl": "",
    "coordinates": [
      50.09766605804322,
      18.54633235925032
    ],
    "dataType": "CONCESSION",
    "category": "intermediary",
    "subcategory": "Sprzedawcy zobowiązani"
  },
  {
    "id": "CONCESSION_062_UNKNOWN_61",
    "name": "\"Ciepłownia\" Sp. z o.o. z siedzibą Aleksandrowie Łódzkim",
    "address": "ul. Piotrkowska 10/12",
    "postalCode": "95-070",
    "city": "Aleksandrów Łódzki",
    "province": "mazowieckie",
    "county": "nieznany",
    "municipality": "Aleksandrów Łódzki",
    "installationType": "UNKNOWN",
    "registrationDate": "",
    "validFrom": "",
    "validTo": "",
    "regon": "",
    "nip": "",
    "exciseNumber": "",
    "fileUrl": "",
    "coordinates": [
      52.02450150385944,
      21.135926070695895
    ],
    "dataType": "CONCESSION",
    "category": "intermediary",
    "subcategory": "Sprzedawcy zobowiązani"
  },
  {
    "id": "CONCESSION_063_UNKNOWN_62",
    "name": "Zarząd Morskich Portów Szczecin i Świnoujście S.A.",
    "address": "ul. Bytomska 7",
    "postalCode": "70-603",
    "city": "Szczecin",
    "province": "zachodniopomorskie",
    "county": "szczeciński",
    "municipality": "Szczecin",
    "installationType": "UNKNOWN",
    "registrationDate": "",
    "validFrom": "",
    "validTo": "",
    "regon": "",
    "nip": "",
    "exciseNumber": "",
    "fileUrl": "",
    "coordinates": [
      53.42946798189091,
      14.552011294827553
    ],
    "dataType": "CONCESSION",
    "category": "intermediary",
    "subcategory": "Sprzedawcy zobowiązani"
  },
  {
    "id": "CONCESSION_064_UNKNOWN_63",
    "name": "Spółka Restrukturyzacji Kopalń S.A.",
    "address": "ul. Strzelców Bytomskich 207",
    "postalCode": "41-914",
    "city": "Bytom",
    "province": "śląskie",
    "county": "bytomski",
    "municipality": "Bytom",
    "installationType": "UNKNOWN",
    "registrationDate": "",
    "validFrom": "",
    "validTo": "",
    "regon": "",
    "nip": "",
    "exciseNumber": "",
    "fileUrl": "",
    "coordinates": [
      50.34826805243004,
      18.916832788429502
    ],
    "dataType": "CONCESSION",
    "category": "intermediary",
    "subcategory": "Sprzedawcy zobowiązani"
  },
  {
    "id": "CONCESSION_065_UNKNOWN_64",
    "name": "Polskie Porty Lotnicze S.A.",
    "address": "ul. Żwirki i Wigury 1",
    "postalCode": "00-906",
    "city": "Warszawa",
    "province": "mazowieckie",
    "county": "warszawski",
    "municipality": "Warszawa",
    "installationType": "UNKNOWN",
    "registrationDate": "",
    "validFrom": "",
    "validTo": "",
    "regon": "",
    "nip": "",
    "exciseNumber": "",
    "fileUrl": "",
    "coordinates": [
      52.22980268320903,
      21.01172000624595
    ],
    "dataType": "CONCESSION",
    "category": "intermediary",
    "subcategory": "Sprzedawcy zobowiązani"
  },
  {
    "id": "CONCESSION_066_UNKNOWN_65",
    "name": "PCC Energetyka Blachownia Sp. z o.o.",
    "address": "ul. Szkolna 15",
    "postalCode": "47-225",
    "city": "Kędzierzyn-Koźle",
    "province": "mazowieckie",
    "county": "nieznany",
    "municipality": "Kędzierzyn-Koźle",
    "installationType": "UNKNOWN",
    "registrationDate": "",
    "validFrom": "",
    "validTo": "",
    "regon": "",
    "nip": "",
    "exciseNumber": "",
    "fileUrl": "",
    "coordinates": [
      52.02489921838388,
      21.13522107847172
    ],
    "dataType": "CONCESSION",
    "category": "intermediary",
    "subcategory": "Sprzedawcy zobowiązani"
  },
  {
    "id": "CONCESSION_067_UNKNOWN_66",
    "name": "Przedsiębiorstwo Produkcyjno-Usługowe \"STOREM\" Sp. z o.o.",
    "address": "ul. 1 Maja 100",
    "postalCode": "32-340",
    "city": "Wolbrom",
    "province": "mazowieckie",
    "county": "nieznany",
    "municipality": "Góra Kalwaria",
    "installationType": "UNKNOWN",
    "registrationDate": "",
    "validFrom": "",
    "validTo": "",
    "regon": "",
    "nip": "",
    "exciseNumber": "",
    "fileUrl": "",
    "coordinates": [
      52.02460030499482,
      21.13605375352181
    ],
    "dataType": "CONCESSION",
    "category": "intermediary",
    "subcategory": "Sprzedawcy zobowiązani"
  },
  {
    "id": "CONCESSION_068_UNKNOWN_67",
    "name": "Mondi Świecie Sp. z o.o.",
    "address": "ul. Bydgoska 1",
    "postalCode": "86-100",
    "city": "Świecie",
    "province": "mazowieckie",
    "county": "nieznany",
    "municipality": "Warszawa",
    "installationType": "UNKNOWN",
    "registrationDate": "",
    "validFrom": "",
    "validTo": "",
    "regon": "",
    "nip": "",
    "exciseNumber": "",
    "fileUrl": "",
    "coordinates": [
      52.02528424034134,
      21.136162161629034
    ],
    "dataType": "CONCESSION",
    "category": "intermediary",
    "subcategory": "Sprzedawcy zobowiązani"
  },
  {
    "id": "CONCESSION_069_UNKNOWN_68",
    "name": "PCC Rokita S.A.",
    "address": "ul. Sienkiewicza 4",
    "postalCode": "56-120",
    "city": "Brzeg Dolny",
    "province": "mazowieckie",
    "county": "nieznany",
    "municipality": "Góra Kalwaria",
    "installationType": "UNKNOWN",
    "registrationDate": "",
    "validFrom": "",
    "validTo": "",
    "regon": "",
    "nip": "",
    "exciseNumber": "",
    "fileUrl": "",
    "coordinates": [
      52.02452142026335,
      21.13559082427455
    ],
    "dataType": "CONCESSION",
    "category": "intermediary",
    "subcategory": "Sprzedawcy zobowiązani"
  },
  {
    "id": "CONCESSION_070_UNKNOWN_69",
    "name": "Energetyka Wagon Sp. z o.o.",
    "address": "ul. Wysocka 52",
    "postalCode": "63-400",
    "city": "Ostrów Wielkopolski",
    "province": "mazowieckie",
    "county": "nieznany",
    "municipality": "Ostrów Wielkopolski",
    "installationType": "UNKNOWN",
    "registrationDate": "",
    "validFrom": "",
    "validTo": "",
    "regon": "",
    "nip": "",
    "exciseNumber": "",
    "fileUrl": "",
    "coordinates": [
      52.02540891209081,
      21.134557173226945
    ],
    "dataType": "CONCESSION",
    "category": "intermediary",
    "subcategory": "Sprzedawcy zobowiązani"
  },
  {
    "id": "CONCESSION_072_UNKNOWN_70",
    "name": "NSK Bearings Polska S.A.",
    "address": "ul. Jagiellońska 109",
    "postalCode": "25-734",
    "city": "Kielce",
    "province": "świętokrzyskie",
    "county": "kielecki",
    "municipality": "Kielce",
    "installationType": "UNKNOWN",
    "registrationDate": "",
    "validFrom": "",
    "validTo": "",
    "regon": "",
    "nip": "",
    "exciseNumber": "",
    "fileUrl": "",
    "coordinates": [
      50.866429723515544,
      20.628695091502745
    ],
    "dataType": "CONCESSION",
    "category": "intermediary",
    "subcategory": "Sprzedawcy zobowiązani"
  },
  {
    "id": "CONCESSION_073_UNKNOWN_71",
    "name": "Przedsiębiorstwo Energetyki Cieplnej i Gospodarki Wodno-Ściekowej \"ENWOS\" Sp. z o.o.",
    "address": "pl. Kilińskiego 1",
    "postalCode": "32-660",
    "city": "Chełmek",
    "province": "lubelskie",
    "county": "nieznany",
    "municipality": "Chełm",
    "installationType": "UNKNOWN",
    "registrationDate": "",
    "validFrom": "",
    "validTo": "",
    "regon": "",
    "nip": "",
    "exciseNumber": "",
    "fileUrl": "",
    "coordinates": [
      51.14287506710929,
      23.470810142928237
    ],
    "dataType": "CONCESSION",
    "category": "intermediary",
    "subcategory": "Sprzedawcy zobowiązani"
  },
  {
    "id": "CONCESSION_074_UNKNOWN_72",
    "name": "Zakłady Chemiczne \"Siarkopol\" Tarnobrzeg Sp. z o.o.",
    "address": "ul. Chemiczna 3",
    "postalCode": "39-400",
    "city": "Tarnobrzeg",
    "province": "lubelskie",
    "county": "nieznany",
    "municipality": "Tarnobrzeg",
    "installationType": "UNKNOWN",
    "registrationDate": "",
    "validFrom": "",
    "validTo": "",
    "regon": "",
    "nip": "",
    "exciseNumber": "",
    "fileUrl": "",
    "coordinates": [
      50.57259159440073,
      21.67855094883101
    ],
    "dataType": "CONCESSION",
    "category": "intermediary",
    "subcategory": "Sprzedawcy zobowiązani"
  },
  {
    "id": "CONCESSION_075_UNKNOWN_73",
    "name": "ELEKTROCIEPŁOWNIA ZDUŃSKA WOLA Sp. z o.o.",
    "address": "ul. Murarska 21",
    "postalCode": "98-220",
    "city": "Zduńska Wola",
    "province": "mazowieckie",
    "county": "nieznany",
    "municipality": "Zduńska Wola",
    "installationType": "UNKNOWN",
    "registrationDate": "",
    "validFrom": "",
    "validTo": "",
    "regon": "",
    "nip": "",
    "exciseNumber": "",
    "fileUrl": "",
    "coordinates": [
      52.02467114820858,
      21.134564897092726
    ],
    "dataType": "CONCESSION",
    "category": "intermediary",
    "subcategory": "Sprzedawcy zobowiązani"
  },
  {
    "id": "CONCESSION_076_UNKNOWN_74",
    "name": "ENERGIT Sp. z o.o.",
    "address": "ul. Kamieńskiego 11",
    "postalCode": "30-644",
    "city": "Kraków",
    "province": "małopolskie",
    "county": "krakowski",
    "municipality": "Kraków",
    "installationType": "UNKNOWN",
    "registrationDate": "",
    "validFrom": "",
    "validTo": "",
    "regon": "",
    "nip": "",
    "exciseNumber": "",
    "fileUrl": "",
    "coordinates": [
      50.06503004710637,
      19.944373908344105
    ],
    "dataType": "CONCESSION",
    "category": "intermediary",
    "subcategory": "Sprzedawcy zobowiązani"
  },
  {
    "id": "CONCESSION_077_UNKNOWN_75",
    "name": "\"Terma-Dom\" Sp. z o.o.",
    "address": "ul. Bytomska 112a",
    "postalCode": "41-803",
    "city": "Zabrze",
    "province": "śląskie",
    "county": "zabrzański",
    "municipality": "Zabrze",
    "installationType": "UNKNOWN",
    "registrationDate": "",
    "validFrom": "",
    "validTo": "",
    "regon": "",
    "nip": "",
    "exciseNumber": "",
    "fileUrl": "",
    "coordinates": [
      50.32449475743358,
      18.78540780880161
    ],
    "dataType": "CONCESSION",
    "category": "intermediary",
    "subcategory": "Sprzedawcy zobowiązani"
  },
  {
    "id": "CONCESSION_078_UNKNOWN_76",
    "name": "\"Przedsiębiorstwo Energetyczne\" Sp. z o.o. z siedzibą w Nowym Sączu",
    "address": "ul. Węgierska 144A",
    "postalCode": "33-300",
    "city": "Nowy Sącz",
    "province": "małopolskie",
    "county": "nowosądecki",
    "municipality": "Nowy Sącz",
    "installationType": "UNKNOWN",
    "registrationDate": "",
    "validFrom": "",
    "validTo": "",
    "regon": "",
    "nip": "",
    "exciseNumber": "",
    "fileUrl": "",
    "coordinates": [
      49.62474829657789,
      20.693390387229407
    ],
    "dataType": "CONCESSION",
    "category": "intermediary",
    "subcategory": "Sprzedawcy zobowiązani"
  },
  {
    "id": "CONCESSION_079_UNKNOWN_77",
    "name": "Grupa Azoty Zakłady Azotowe Chorzów S.A.",
    "address": "ul. Narutowicza 15",
    "postalCode": "41-503",
    "city": "Chorzów",
    "province": "mazowieckie",
    "county": "nieznany",
    "municipality": "Chorzów",
    "installationType": "UNKNOWN",
    "registrationDate": "",
    "validFrom": "",
    "validTo": "",
    "regon": "",
    "nip": "",
    "exciseNumber": "",
    "fileUrl": "",
    "coordinates": [
      52.0248720716514,
      21.135756485491573
    ],
    "dataType": "CONCESSION",
    "category": "intermediary",
    "subcategory": "Sprzedawcy zobowiązani"
  },
  {
    "id": "CONCESSION_080_UNKNOWN_78",
    "name": "CNP Centrum Nakładania Powłok Leszek Rak",
    "address": "ul. Partyzantów 21",
    "postalCode": "42-300",
    "city": "Myszków",
    "province": "mazowieckie",
    "county": "nieznany",
    "municipality": "Góra Kalwaria",
    "installationType": "UNKNOWN",
    "registrationDate": "",
    "validFrom": "",
    "validTo": "",
    "regon": "",
    "nip": "",
    "exciseNumber": "",
    "fileUrl": "",
    "coordinates": [
      52.024358508582665,
      21.135480681069826
    ],
    "dataType": "CONCESSION",
    "category": "intermediary",
    "subcategory": "Sprzedawcy zobowiązani"
  },
  {
    "id": "CONCESSION_081_UNKNOWN_79",
    "name": "Grupa Azoty Zakłady Azotowe \"PUŁAWY\" S.A.",
    "address": "Al. Tysiąclecia Państwa Polskiego 13",
    "postalCode": "24-110",
    "city": "Puławy. pulawy.grupaazoty.com+1",
    "province": "mazowieckie",
    "county": "nieznany",
    "municipality": "Góra Kalwaria",
    "installationType": "UNKNOWN",
    "registrationDate": "",
    "validFrom": "",
    "validTo": "",
    "regon": "",
    "nip": "",
    "exciseNumber": "",
    "fileUrl": "",
    "coordinates": [
      52.02409027376595,
      21.136107097380034
    ],
    "dataType": "CONCESSION",
    "category": "intermediary",
    "subcategory": "Sprzedawcy zobowiązani"
  },
  {
    "id": "CONCESSION_082_UNKNOWN_80",
    "name": "\"ZAEL-ENERGO\" Sp. z o.o.",
    "address": "ul. Grabiszyńska 163/510",
    "postalCode": "53-439",
    "city": "Wrocław. zael.com.pl+1",
    "province": "dolnośląskie",
    "county": "nieznany",
    "municipality": "Wrocław",
    "installationType": "UNKNOWN",
    "registrationDate": "",
    "validFrom": "",
    "validTo": "",
    "regon": "",
    "nip": "",
    "exciseNumber": "",
    "fileUrl": "",
    "coordinates": [
      51.10888479718267,
      17.039076594000527
    ],
    "dataType": "CONCESSION",
    "category": "intermediary",
    "subcategory": "Sprzedawcy zobowiązani"
  },
  {
    "id": "CONCESSION_083_UNKNOWN_81",
    "name": "Energostrefa Sp. z o.o.",
    "address": "ul. Wrocławska 94",
    "postalCode": "41-902",
    "city": "Bytom. energostrefa.pl+1",
    "province": "śląskie",
    "county": "nieznany",
    "municipality": "Bytom",
    "installationType": "UNKNOWN",
    "registrationDate": "",
    "validFrom": "",
    "validTo": "",
    "regon": "",
    "nip": "",
    "exciseNumber": "",
    "fileUrl": "",
    "coordinates": [
      50.348964547496365,
      18.91711706945827
    ],
    "dataType": "CONCESSION",
    "category": "intermediary",
    "subcategory": "Sprzedawcy zobowiązani"
  },
  {
    "id": "CONCESSION_084_UNKNOWN_82",
    "name": "FEDERAL-MOGUL GORZYCE Sp. z o.o.",
    "address": "ul. Odlewników 52",
    "postalCode": "39-432",
    "city": "Gorzyce. Federal-Mogul+1",
    "province": "mazowieckie",
    "county": "nieznany",
    "municipality": "Góra Kalwaria",
    "installationType": "UNKNOWN",
    "registrationDate": "",
    "validFrom": "",
    "validTo": "",
    "regon": "",
    "nip": "",
    "exciseNumber": "",
    "fileUrl": "",
    "coordinates": [
      52.02530131340226,
      21.136166449432235
    ],
    "dataType": "CONCESSION",
    "category": "intermediary",
    "subcategory": "Sprzedawcy zobowiązani"
  },
  {
    "id": "CONCESSION_085_UNKNOWN_83",
    "name": "FPM S.A.",
    "address": "ul. Wyzwolenia 12C",
    "postalCode": "43-190",
    "city": "Mikołów. FPM S.A.+1",
    "province": "mazowieckie",
    "county": "nieznany",
    "municipality": "Góra Kalwaria",
    "installationType": "UNKNOWN",
    "registrationDate": "",
    "validFrom": "",
    "validTo": "",
    "regon": "",
    "nip": "",
    "exciseNumber": "",
    "fileUrl": "",
    "coordinates": [
      52.023787999850654,
      21.135092723416246
    ],
    "dataType": "CONCESSION",
    "category": "intermediary",
    "subcategory": "Sprzedawcy zobowiązani"
  },
  {
    "id": "CONCESSION_086_UNKNOWN_84",
    "name": "ECO Jelenia Góra Sp. z o.o.",
    "address": "ul. Karola Miarki 46",
    "postalCode": "58-500",
    "city": "Jelenia Góra. ecosa.pl+1",
    "province": "dolnośląskie",
    "county": "nieznany",
    "municipality": "Jelenia Góra",
    "installationType": "UNKNOWN",
    "registrationDate": "",
    "validFrom": "",
    "validTo": "",
    "regon": "",
    "nip": "",
    "exciseNumber": "",
    "fileUrl": "",
    "coordinates": [
      50.90383987842013,
      15.719542944471245
    ],
    "dataType": "CONCESSION",
    "category": "intermediary",
    "subcategory": "Sprzedawcy zobowiązani"
  },
  {
    "id": "CONCESSION_088_UNKNOWN_85",
    "name": "PGE Górnictwo i Energetyka Konwencjonalna S.A.",
    "address": "ul. Węglowa 5",
    "postalCode": "97-400",
    "city": "Bełchatów. pgegiek.pl+1",
    "province": "mazowieckie",
    "county": "nieznany",
    "municipality": "Góra Kalwaria",
    "installationType": "UNKNOWN",
    "registrationDate": "",
    "validFrom": "",
    "validTo": "",
    "regon": "",
    "nip": "",
    "exciseNumber": "",
    "fileUrl": "",
    "coordinates": [
      52.025455180156555,
      21.135651874229286
    ],
    "dataType": "CONCESSION",
    "category": "intermediary",
    "subcategory": "Sprzedawcy zobowiązani"
  },
  {
    "id": "CONCESSION_089_UNKNOWN_86",
    "name": "Dolnośląskie Zakłady Usługowo - Produkcyjne \"DOZAMEL\" Sp. z o. o.",
    "address": "ul. Fabryczna 10",
    "postalCode": "53-609",
    "city": "Wrocław. Dozamel+1",
    "province": "dolnośląskie",
    "county": "nieznany",
    "municipality": "Wrocław",
    "installationType": "UNKNOWN",
    "registrationDate": "",
    "validFrom": "",
    "validTo": "",
    "regon": "",
    "nip": "",
    "exciseNumber": "",
    "fileUrl": "",
    "coordinates": [
      51.10753047691619,
      17.03789663643063
    ],
    "dataType": "CONCESSION",
    "category": "intermediary",
    "subcategory": "Sprzedawcy zobowiązani"
  },
  {
    "id": "CONCESSION_090_UNKNOWN_87",
    "name": "Elektrociepłownia Mielec Sp. z o.o.",
    "address": "ul. Wojska Polskiego 3",
    "postalCode": "39-300",
    "city": "Mielec. Elektrociepłownia Mielec Sp. z o.o.+1",
    "province": "małopolskie",
    "county": "nieznany",
    "municipality": "Mielec",
    "installationType": "UNKNOWN",
    "registrationDate": "",
    "validFrom": "",
    "validTo": "",
    "regon": "",
    "nip": "",
    "exciseNumber": "",
    "fileUrl": "",
    "coordinates": [
      50.287623190319934,
      21.42476727769703
    ],
    "dataType": "CONCESSION",
    "category": "intermediary",
    "subcategory": "Sprzedawcy zobowiązani"
  },
  {
    "id": "CONCESSION_091_UNKNOWN_88",
    "name": "Power 21 Sp. z o. o.",
    "address": "ul. Stefana Okrzei 26/1",
    "postalCode": "03-710",
    "city": "Warszawa. Power21 - Energia elektryczna dla firmy+1",
    "province": "mazowieckie",
    "county": "nieznany",
    "municipality": "Warszawa",
    "installationType": "UNKNOWN",
    "registrationDate": "",
    "validFrom": "",
    "validTo": "",
    "regon": "",
    "nip": "",
    "exciseNumber": "",
    "fileUrl": "",
    "coordinates": [
      52.22873519536647,
      21.01204049392323
    ],
    "dataType": "CONCESSION",
    "category": "intermediary",
    "subcategory": "Sprzedawcy zobowiązani"
  },
  {
    "id": "CONCESSION_092_UNKNOWN_89",
    "name": "Grupa Energia GE Sp. z o.o.",
    "address": "Al. Armii Ludowej 28",
    "postalCode": "00-609",
    "city": "Warszawa. grupaenergiage.pl",
    "province": "mazowieckie",
    "county": "nieznany",
    "municipality": "Warszawa",
    "installationType": "UNKNOWN",
    "registrationDate": "",
    "validFrom": "",
    "validTo": "",
    "regon": "",
    "nip": "",
    "exciseNumber": "",
    "fileUrl": "",
    "coordinates": [
      52.230383225354664,
      21.01184442933218
    ],
    "dataType": "CONCESSION",
    "category": "intermediary",
    "subcategory": "Sprzedawcy zobowiązani"
  },
  {
    "id": "CONCESSION_093_UNKNOWN_90",
    "name": "ZEM ŁABĘDY Sp. z o.o.",
    "address": "ul. Anny Jagiellonki 45",
    "postalCode": "44-109",
    "city": "Gliwice. site:site_title+1",
    "province": "śląskie",
    "county": "nieznany",
    "municipality": "Gliwice",
    "installationType": "UNKNOWN",
    "registrationDate": "",
    "validFrom": "",
    "validTo": "",
    "regon": "",
    "nip": "",
    "exciseNumber": "",
    "fileUrl": "",
    "coordinates": [
      50.29524480372611,
      18.6716424839897
    ],
    "dataType": "CONCESSION",
    "category": "intermediary",
    "subcategory": "Sprzedawcy zobowiązani"
  },
  {
    "id": "CONCESSION_094_UNKNOWN_91",
    "name": "Elco Energy Sp. z o.o.",
    "address": "adres rejestrowy: ul. Twarda 4",
    "postalCode": "00-105",
    "city": "Warszawa; biuro/kontakt: ul. Chorzowska 109A, 40-101 Katowice. Krs Pobierz+1",
    "province": "mazowieckie",
    "county": "nieznany",
    "municipality": "Warszawa",
    "installationType": "UNKNOWN",
    "registrationDate": "",
    "validFrom": "",
    "validTo": "",
    "regon": "",
    "nip": "",
    "exciseNumber": "",
    "fileUrl": "",
    "coordinates": [
      52.229967110078896,
      21.01248230288461
    ],
    "dataType": "CONCESSION",
    "category": "intermediary",
    "subcategory": "Sprzedawcy zobowiązani"
  },
  {
    "id": "CONCESSION_095_UNKNOWN_92",
    "name": "Energia Euro Park Sp. z o.o.",
    "address": "ul. Wojska Polskiego 3",
    "postalCode": "39-300",
    "city": "Mielec. Energia Euro Park+1",
    "province": "małopolskie",
    "county": "nieznany",
    "municipality": "Mielec",
    "installationType": "UNKNOWN",
    "registrationDate": "",
    "validFrom": "",
    "validTo": "",
    "regon": "",
    "nip": "",
    "exciseNumber": "",
    "fileUrl": "",
    "coordinates": [
      50.28805680330582,
      21.423617533762037
    ],
    "dataType": "CONCESSION",
    "category": "intermediary",
    "subcategory": "Sprzedawcy zobowiązani"
  },
  {
    "id": "CONCESSION_096_UNKNOWN_93",
    "name": "Plus Energia Sp. z o.o.",
    "address": "ul. Grochowska 312",
    "postalCode": "03-839",
    "city": "Warszawa. plusenergia.pl",
    "province": "mazowieckie",
    "county": "nieznany",
    "municipality": "Warszawa",
    "installationType": "UNKNOWN",
    "registrationDate": "",
    "validFrom": "",
    "validTo": "",
    "regon": "",
    "nip": "",
    "exciseNumber": "",
    "fileUrl": "",
    "coordinates": [
      52.230016949510954,
      21.01247623338916
    ],
    "dataType": "CONCESSION",
    "category": "intermediary",
    "subcategory": "Sprzedawcy zobowiązani"
  },
  {
    "id": "CONCESSION_097_UNKNOWN_94",
    "name": "Wytwórnia Sprzętu Komunikacyjnego \"PZL-Świdnik\" S.A.",
    "address": "Al. Lotników Polskich 1",
    "postalCode": "21-045",
    "city": "Świdnik. pzlswidnik.pl",
    "province": "mazowieckie",
    "county": "nieznany",
    "municipality": "Góra Kalwaria",
    "installationType": "UNKNOWN",
    "registrationDate": "",
    "validFrom": "",
    "validTo": "",
    "regon": "",
    "nip": "",
    "exciseNumber": "",
    "fileUrl": "",
    "coordinates": [
      52.023639792080786,
      21.136127787413724
    ],
    "dataType": "CONCESSION",
    "category": "intermediary",
    "subcategory": "Sprzedawcy zobowiązani"
  },
  {
    "id": "CONCESSION_098_UNKNOWN_95",
    "name": "Przedsiębiorstwo Handlowo-Usługowe Brodzik Sp. K.",
    "address": "ul. 11-go Listopada 2/4",
    "postalCode": "42-400",
    "city": "Zawiercie. broenergia.pl+1",
    "province": "mazowieckie",
    "county": "nieznany",
    "municipality": "Góra Kalwaria",
    "installationType": "UNKNOWN",
    "registrationDate": "",
    "validFrom": "",
    "validTo": "",
    "regon": "",
    "nip": "",
    "exciseNumber": "",
    "fileUrl": "",
    "coordinates": [
      52.02494792982798,
      21.134792454836898
    ],
    "dataType": "CONCESSION",
    "category": "intermediary",
    "subcategory": "Sprzedawcy zobowiązani"
  },
  {
    "id": "CONCESSION_099_UNKNOWN_96",
    "name": "PAL Sp. z o.o.",
    "address": "ul. Kwidzyńska 11",
    "postalCode": "51-415",
    "city": "Wrocław. Pal Energia+1",
    "province": "dolnośląskie",
    "county": "nieznany",
    "municipality": "Wrocław",
    "installationType": "UNKNOWN",
    "registrationDate": "",
    "validFrom": "",
    "validTo": "",
    "regon": "",
    "nip": "",
    "exciseNumber": "",
    "fileUrl": "",
    "coordinates": [
      51.1076226773617,
      17.038210036228566
    ],
    "dataType": "CONCESSION",
    "category": "intermediary",
    "subcategory": "Sprzedawcy zobowiązani"
  },
  {
    "id": "CONCESSION_100_UNKNOWN_97",
    "name": "Energetyka Nowy Dwór Mazowiecki Sp. z o.o.",
    "address": "ul. Zakroczymska 30 lok. 118",
    "postalCode": "05-100",
    "city": "Nowy Dwór Mazowiecki. energetyka.nowydwormaz.pl+1",
    "province": "mazowieckie",
    "county": "nieznany",
    "municipality": "Góra Kalwaria",
    "installationType": "UNKNOWN",
    "registrationDate": "",
    "validFrom": "",
    "validTo": "",
    "regon": "",
    "nip": "",
    "exciseNumber": "",
    "fileUrl": "",
    "coordinates": [
      52.02490350290987,
      21.13599483010618
    ],
    "dataType": "CONCESSION",
    "category": "intermediary",
    "subcategory": "Sprzedawcy zobowiązani"
  },
  {
    "id": "CONCESSION_101_UNKNOWN_98",
    "name": "Boryszew S.A.",
    "address": "Al. Jerozolimskie 92",
    "postalCode": "00-807",
    "city": "Warszawa. boryszew.com.pl+1",
    "province": "mazowieckie",
    "county": "nieznany",
    "municipality": "Warszawa",
    "installationType": "UNKNOWN",
    "registrationDate": "",
    "validFrom": "",
    "validTo": "",
    "regon": "",
    "nip": "",
    "exciseNumber": "",
    "fileUrl": "",
    "coordinates": [
      52.22945763422863,
      21.013093366981916
    ],
    "dataType": "CONCESSION",
    "category": "intermediary",
    "subcategory": "Sprzedawcy zobowiązani"
  },
  {
    "id": "CONCESSION_102_UNKNOWN_99",
    "name": "ECO Kogeneracja Sp. z o.o.",
    "address": "ul. Harcerska 15",
    "postalCode": "45-118",
    "city": "Opole. ecosa.pl+1",
    "province": "mazowieckie",
    "county": "nieznany",
    "municipality": "Góra Kalwaria",
    "installationType": "UNKNOWN",
    "registrationDate": "",
    "validFrom": "",
    "validTo": "",
    "regon": "",
    "nip": "",
    "exciseNumber": "",
    "fileUrl": "",
    "coordinates": [
      52.025062659507896,
      21.134971140317546
    ],
    "dataType": "CONCESSION",
    "category": "intermediary",
    "subcategory": "Sprzedawcy zobowiązani"
  },
  {
    "id": "CONCESSION_103_UNKNOWN_100",
    "name": "Polontex S.A.",
    "address": "ul. Rejtana 25",
    "postalCode": "42-202",
    "city": "Częstochowa. Polontex S.A.+1",
    "province": "śląskie",
    "county": "nieznany",
    "municipality": "Częstochowa",
    "installationType": "UNKNOWN",
    "registrationDate": "",
    "validFrom": "",
    "validTo": "",
    "regon": "",
    "nip": "",
    "exciseNumber": "",
    "fileUrl": "",
    "coordinates": [
      50.81147907917031,
      19.12118263257574
    ],
    "dataType": "CONCESSION",
    "category": "intermediary",
    "subcategory": "Sprzedawcy zobowiązani"
  },
  {
    "id": "CONCESSION_104_UNKNOWN_101",
    "name": "\"D-ENERGIA\" Sp. z o.o.",
    "address": "Wymysłowice 1",
    "postalCode": "88-320",
    "city": "Strzelno",
    "province": "mazowieckie",
    "county": "nieznany",
    "municipality": "Góra Kalwaria",
    "installationType": "UNKNOWN",
    "registrationDate": "",
    "validFrom": "",
    "validTo": "",
    "regon": "",
    "nip": "",
    "exciseNumber": "",
    "fileUrl": "",
    "coordinates": [
      52.024312281025686,
      21.136141456871016
    ],
    "dataType": "CONCESSION",
    "category": "intermediary",
    "subcategory": "Sprzedawcy zobowiązani"
  },
  {
    "id": "CONCESSION_105_UNKNOWN_102",
    "name": "Edison Next Poland Sp. z o.o.",
    "address": "ul. Komorowicka 79A",
    "postalCode": "43-300",
    "city": "Bielsko-Biała. edisonnext.pl+1",
    "province": "małopolskie",
    "county": "nieznany",
    "municipality": "Bielsko-Biała",
    "installationType": "UNKNOWN",
    "registrationDate": "",
    "validFrom": "",
    "validTo": "",
    "regon": "",
    "nip": "",
    "exciseNumber": "",
    "fileUrl": "",
    "coordinates": [
      49.821897118504076,
      19.04465659726105
    ],
    "dataType": "CONCESSION",
    "category": "intermediary",
    "subcategory": "Sprzedawcy zobowiązani"
  },
  {
    "id": "CONCESSION_106_UNKNOWN_103",
    "name": "CMC Poland Sp. z o.o.",
    "address": "ul. Piłsudskiego 82",
    "postalCode": "42-400",
    "city": "Zawiercie. CMC",
    "province": "mazowieckie",
    "county": "nieznany",
    "municipality": "Góra Kalwaria",
    "installationType": "UNKNOWN",
    "registrationDate": "",
    "validFrom": "",
    "validTo": "",
    "regon": "",
    "nip": "",
    "exciseNumber": "",
    "fileUrl": "",
    "coordinates": [
      52.02425465976561,
      21.135169461106635
    ],
    "dataType": "CONCESSION",
    "category": "intermediary",
    "subcategory": "Sprzedawcy zobowiązani"
  },
  {
    "id": "CONCESSION_107_UNKNOWN_104",
    "name": "Grupa Azoty Kopalnie i Zakłady Chemiczne Siarki \"Siarkopol\" S.A.",
    "address": "Grzybów 34",
    "postalCode": "28-200",
    "city": "Staszów. siarkopol.grupaazoty.com",
    "province": "mazowieckie",
    "county": "nieznany",
    "municipality": "Góra Kalwaria",
    "installationType": "UNKNOWN",
    "registrationDate": "",
    "validFrom": "",
    "validTo": "",
    "regon": "",
    "nip": "",
    "exciseNumber": "",
    "fileUrl": "",
    "coordinates": [
      52.02438267209358,
      21.135544031699585
    ],
    "dataType": "CONCESSION",
    "category": "intermediary",
    "subcategory": "Sprzedawcy zobowiązani"
  },
  {
    "id": "CONCESSION_108_UNKNOWN_105",
    "name": "Telenerg-Bis Energia Sp. z o.o.",
    "address": "ul. Dolinna 27",
    "postalCode": "94-111",
    "city": "Łódź. tbenergia.pl",
    "province": "łódzkie",
    "county": "nieznany",
    "municipality": "Łódź",
    "installationType": "UNKNOWN",
    "registrationDate": "",
    "validFrom": "",
    "validTo": "",
    "regon": "",
    "nip": "",
    "exciseNumber": "",
    "fileUrl": "",
    "coordinates": [
      51.76017355313285,
      19.45594696079732
    ],
    "dataType": "CONCESSION",
    "category": "intermediary",
    "subcategory": "Sprzedawcy zobowiązani"
  },
  {
    "id": "CONCESSION_109_UNKNOWN_106",
    "name": "Side Sp. z o.o.",
    "address": "ul. Kwidzyńska 11",
    "postalCode": "51-415",
    "city": "Wrocław",
    "province": "dolnośląskie",
    "county": "wrocławski",
    "municipality": "Wrocław",
    "installationType": "UNKNOWN",
    "registrationDate": "",
    "validFrom": "",
    "validTo": "",
    "regon": "",
    "nip": "",
    "exciseNumber": "",
    "fileUrl": "",
    "coordinates": [
      51.107619992782936,
      17.03931431050771
    ],
    "dataType": "CONCESSION",
    "category": "intermediary",
    "subcategory": "Sprzedawcy zobowiązani"
  },
  {
    "id": "CONCESSION_110_UNKNOWN_107",
    "name": "\"Green Lights\" Sp. z o.o.",
    "address": "ul. 1 Sierpnia 6",
    "postalCode": "02-134",
    "city": "Warszawa. Krs Pobierz",
    "province": "mazowieckie",
    "county": "nieznany",
    "municipality": "Warszawa",
    "installationType": "UNKNOWN",
    "registrationDate": "",
    "validFrom": "",
    "validTo": "",
    "regon": "",
    "nip": "",
    "exciseNumber": "",
    "fileUrl": "",
    "coordinates": [
      52.22978980386471,
      21.012611422834343
    ],
    "dataType": "CONCESSION",
    "category": "intermediary",
    "subcategory": "Sprzedawcy zobowiązani"
  },
  {
    "id": "CONCESSION_111_UNKNOWN_108",
    "name": "Przedsiębiorstwo Energetyki Cieplnej \"Legionowo\" Sp. z o.o.",
    "address": "ul. Sowińskiego 37",
    "postalCode": "05-120",
    "city": "Legionowo. pec.com.pl+1",
    "province": "mazowieckie",
    "county": "nieznany",
    "municipality": "Góra Kalwaria",
    "installationType": "UNKNOWN",
    "registrationDate": "",
    "validFrom": "",
    "validTo": "",
    "regon": "",
    "nip": "",
    "exciseNumber": "",
    "fileUrl": "",
    "coordinates": [
      52.024156645596065,
      21.13509634641921
    ],
    "dataType": "CONCESSION",
    "category": "intermediary",
    "subcategory": "Sprzedawcy zobowiązani"
  },
  {
    "id": "CONCESSION_112_UNKNOWN_109",
    "name": "Orion Engineered Carbons Sp. z o.o.",
    "address": "ul. 3 Maja 83",
    "postalCode": "38-200",
    "city": "Jasło",
    "province": "mazowieckie",
    "county": "nieznany",
    "municipality": "Jasło",
    "installationType": "UNKNOWN",
    "registrationDate": "",
    "validFrom": "",
    "validTo": "",
    "regon": "",
    "nip": "",
    "exciseNumber": "",
    "fileUrl": "",
    "coordinates": [
      52.024426024618485,
      21.13539412682398
    ],
    "dataType": "CONCESSION",
    "category": "intermediary",
    "subcategory": "Sprzedawcy zobowiązani"
  },
  {
    "id": "CONCESSION_113_UNKNOWN_110",
    "name": "Terawat Dystrybucja Sp. z o.o.",
    "address": "ul. Wrocławska 94",
    "postalCode": "41-902",
    "city": "Bytom",
    "province": "śląskie",
    "county": "bytomski",
    "municipality": "Bytom",
    "installationType": "UNKNOWN",
    "registrationDate": "",
    "validFrom": "",
    "validTo": "",
    "regon": "",
    "nip": "",
    "exciseNumber": "",
    "fileUrl": "",
    "coordinates": [
      50.34771698894934,
      18.917121987400865
    ],
    "dataType": "CONCESSION",
    "category": "intermediary",
    "subcategory": "Sprzedawcy zobowiązani"
  },
  {
    "id": "CONCESSION_114_UNKNOWN_111",
    "name": "UNIHUT S.A.",
    "address": "ul. Igołomska 28H",
    "postalCode": "31-983",
    "city": "Kraków",
    "province": "małopolskie",
    "county": "krakowski",
    "municipality": "Kraków",
    "installationType": "UNKNOWN",
    "registrationDate": "",
    "validFrom": "",
    "validTo": "",
    "regon": "",
    "nip": "",
    "exciseNumber": "",
    "fileUrl": "",
    "coordinates": [
      50.065281465781226,
      19.94468575594726
    ],
    "dataType": "CONCESSION",
    "category": "intermediary",
    "subcategory": "Sprzedawcy zobowiązani"
  },
  {
    "id": "CONCESSION_116_UNKNOWN_112",
    "name": "Grupa Energia Obrót GE Sp. z o.o.",
    "address": "Al. Armii Ludowej 28",
    "postalCode": "00-609",
    "city": "Warszawa. grupaenergiaobrotge.pl",
    "province": "mazowieckie",
    "county": "nieznany",
    "municipality": "Warszawa",
    "installationType": "UNKNOWN",
    "registrationDate": "",
    "validFrom": "",
    "validTo": "",
    "regon": "",
    "nip": "",
    "exciseNumber": "",
    "fileUrl": "",
    "coordinates": [
      52.22872792857799,
      21.012465434429284
    ],
    "dataType": "CONCESSION",
    "category": "intermediary",
    "subcategory": "Sprzedawcy zobowiązani"
  },
  {
    "id": "CONCESSION_117_UNKNOWN_113",
    "name": "Mera Operator Sp. z o.o.",
    "address": "ul. Krotoszyńska 35",
    "postalCode": "63-400",
    "city": "Ostrów Wielkopolski",
    "province": "mazowieckie",
    "county": "nieznany",
    "municipality": "Ostrów Wielkopolski",
    "installationType": "UNKNOWN",
    "registrationDate": "",
    "validFrom": "",
    "validTo": "",
    "regon": "",
    "nip": "",
    "exciseNumber": "",
    "fileUrl": "",
    "coordinates": [
      52.024132031672956,
      21.13450213807585
    ],
    "dataType": "CONCESSION",
    "category": "intermediary",
    "subcategory": "Sprzedawcy zobowiązani"
  },
  {
    "id": "CONCESSION_118_UNKNOWN_114",
    "name": "PSSE Media Operator Sp. z o.o.",
    "address": "ul. Na Ostrowiu 15/20",
    "postalCode": "80-873",
    "city": "Gdańsk",
    "province": "pomorskie",
    "county": "gdański",
    "municipality": "Gdańsk",
    "installationType": "UNKNOWN",
    "registrationDate": "",
    "validFrom": "",
    "validTo": "",
    "regon": "",
    "nip": "",
    "exciseNumber": "",
    "fileUrl": "",
    "coordinates": [
      54.352805418247804,
      18.647496610624806
    ],
    "dataType": "CONCESSION",
    "category": "intermediary",
    "subcategory": "Sprzedawcy zobowiązani"
  },
  {
    "id": "CONCESSION_119_UNKNOWN_115",
    "name": "EMPOL ENERGIA Sp. z o.o.",
    "address": "ul. Fabryczna 1",
    "postalCode": "38-300",
    "city": "Gorlice",
    "province": "mazowieckie",
    "county": "nieznany",
    "municipality": "Gorlice",
    "installationType": "UNKNOWN",
    "registrationDate": "",
    "validFrom": "",
    "validTo": "",
    "regon": "",
    "nip": "",
    "exciseNumber": "",
    "fileUrl": "",
    "coordinates": [
      52.02545020507186,
      21.13567883923904
    ],
    "dataType": "CONCESSION",
    "category": "intermediary",
    "subcategory": "Sprzedawcy zobowiązani"
  },
  {
    "id": "CONCESSION_120_UNKNOWN_116",
    "name": "EnH2O Sp. z o.o.",
    "address": "ul. Nowomiejska 3",
    "postalCode": "80-864",
    "city": "Gdańsk",
    "province": "pomorskie",
    "county": "gdański",
    "municipality": "Gdańsk",
    "installationType": "UNKNOWN",
    "registrationDate": "",
    "validFrom": "",
    "validTo": "",
    "regon": "",
    "nip": "",
    "exciseNumber": "",
    "fileUrl": "",
    "coordinates": [
      54.35226235902516,
      18.646822207112614
    ],
    "dataType": "CONCESSION",
    "category": "intermediary",
    "subcategory": "Sprzedawcy zobowiązani"
  },
  {
    "id": "CONCESSION_121_UNKNOWN_117",
    "name": "ERGO ENERGY Sp. z o.o.",
    "address": "ul. Jerzego Waszyngtona 34-36",
    "postalCode": "81-342",
    "city": "Gdynia",
    "province": "pomorskie",
    "county": "gdyński",
    "municipality": "Gdynia",
    "installationType": "UNKNOWN",
    "registrationDate": "",
    "validFrom": "",
    "validTo": "",
    "regon": "",
    "nip": "",
    "exciseNumber": "",
    "fileUrl": "",
    "coordinates": [
      54.51821105549854,
      18.53043078660253
    ],
    "dataType": "CONCESSION",
    "category": "intermediary",
    "subcategory": "Sprzedawcy zobowiązani"
  },
  {
    "id": "CONCESSION_122_UNKNOWN_118",
    "name": "Akademia Śląska",
    "address": "ul. Rolna 43",
    "postalCode": "40-555",
    "city": "Katowice",
    "province": "małopolskie",
    "county": "nieznany",
    "municipality": "Katowice",
    "installationType": "UNKNOWN",
    "registrationDate": "",
    "validFrom": "",
    "validTo": "",
    "regon": "",
    "nip": "",
    "exciseNumber": "",
    "fileUrl": "",
    "coordinates": [
      50.26415102247373,
      19.022985643774394
    ],
    "dataType": "CONCESSION",
    "category": "intermediary",
    "subcategory": "Sprzedawcy zobowiązani"
  },
  {
    "id": "CONCESSION_123_UNKNOWN_119",
    "name": "\"Green Lights Dystrybucja\" Sp. z o.o.",
    "address": "ul. 1 Sierpnia 6, bud. D",
    "postalCode": "02-134",
    "city": "Warszawa",
    "province": "mazowieckie",
    "county": "warszawski",
    "municipality": "Warszawa",
    "installationType": "UNKNOWN",
    "registrationDate": "",
    "validFrom": "",
    "validTo": "",
    "regon": "",
    "nip": "",
    "exciseNumber": "",
    "fileUrl": "",
    "coordinates": [
      52.230028145754886,
      21.01124400381085
    ],
    "dataType": "CONCESSION",
    "category": "intermediary",
    "subcategory": "Sprzedawcy zobowiązani"
  },
  {
    "id": "CONCESSION_124_UNKNOWN_120",
    "name": "Gmina Uniejów - Energetyka Uniejów",
    "address": "ul. Bł. Bogumiła 13",
    "postalCode": "99-210",
    "city": "Uniejów",
    "province": "mazowieckie",
    "county": "nieznany",
    "municipality": "Uniejów",
    "installationType": "UNKNOWN",
    "registrationDate": "",
    "validFrom": "",
    "validTo": "",
    "regon": "",
    "nip": "",
    "exciseNumber": "",
    "fileUrl": "",
    "coordinates": [
      52.02367183027376,
      21.13500530053967
    ],
    "dataType": "CONCESSION",
    "category": "intermediary",
    "subcategory": "Sprzedawcy zobowiązani"
  },
  {
    "id": "CONCESSION_125_UNKNOWN_121",
    "name": "Pal1 Sp. z o.o.",
    "address": "ul. Jana Długosza 42–46",
    "postalCode": "51-162",
    "city": "Wrocław",
    "province": "dolnośląskie",
    "county": "wrocławski",
    "municipality": "Wrocław",
    "installationType": "UNKNOWN",
    "registrationDate": "",
    "validFrom": "",
    "validTo": "",
    "regon": "",
    "nip": "",
    "exciseNumber": "",
    "fileUrl": "",
    "coordinates": [
      51.10825064772,
      17.03802284204388
    ],
    "dataType": "CONCESSION",
    "category": "intermediary",
    "subcategory": "Sprzedawcy zobowiązani"
  },
  {
    "id": "CONCESSION_126_UNKNOWN_122",
    "name": "MAZOVIAN ENERGY PARTNERS Sp. z o.o.",
    "address": "ul. Hoża 86 lok. 410",
    "postalCode": "00-682",
    "city": "Warszawa",
    "province": "mazowieckie",
    "county": "warszawski",
    "municipality": "Warszawa",
    "installationType": "UNKNOWN",
    "registrationDate": "",
    "validFrom": "",
    "validTo": "",
    "regon": "",
    "nip": "",
    "exciseNumber": "",
    "fileUrl": "",
    "coordinates": [
      52.22886611578452,
      21.01167964174212
    ],
    "dataType": "CONCESSION",
    "category": "intermediary",
    "subcategory": "Sprzedawcy zobowiązani"
  },
  {
    "id": "CONCESSION_127_UNKNOWN_123",
    "name": "Elektrix S.A. w restrukturyzacji",
    "address": "ul. Bukietowa 5/U1",
    "postalCode": "02-650",
    "city": "Warszawa",
    "province": "mazowieckie",
    "county": "warszawski",
    "municipality": "Warszawa",
    "installationType": "UNKNOWN",
    "registrationDate": "",
    "validFrom": "",
    "validTo": "",
    "regon": "",
    "nip": "",
    "exciseNumber": "",
    "fileUrl": "",
    "coordinates": [
      52.22963123567925,
      21.012733599293647
    ],
    "dataType": "CONCESSION",
    "category": "intermediary",
    "subcategory": "Sprzedawcy zobowiązani"
  },
  {
    "id": "CONCESSION_128_UNKNOWN_124",
    "name": "\"Green Lights Holding\" Sp. z o.o.",
    "address": "ul. 1 Sierpnia 6 bud. D",
    "postalCode": "02-134",
    "city": "Warszawa",
    "province": "mazowieckie",
    "county": "warszawski",
    "municipality": "Warszawa",
    "installationType": "UNKNOWN",
    "registrationDate": "",
    "validFrom": "",
    "validTo": "",
    "regon": "",
    "nip": "",
    "exciseNumber": "",
    "fileUrl": "",
    "coordinates": [
      52.22981417116421,
      21.011391029570863
    ],
    "dataType": "CONCESSION",
    "category": "intermediary",
    "subcategory": "Sprzedawcy zobowiązani"
  },
  {
    "id": "CONCESSION_129_UNKNOWN_125",
    "name": "PGNiG TERMIKA Energetyka Przemysłowa S.A.",
    "address": "ul. Rybnicka 6c",
    "postalCode": "44-335",
    "city": "Jastrzębie-Zdrój",
    "province": "mazowieckie",
    "county": "nieznany",
    "municipality": "Góra Kalwaria",
    "installationType": "UNKNOWN",
    "registrationDate": "",
    "validFrom": "",
    "validTo": "",
    "regon": "",
    "nip": "",
    "exciseNumber": "",
    "fileUrl": "",
    "coordinates": [
      52.02526824466799,
      21.135024061726966
    ],
    "dataType": "CONCESSION",
    "category": "intermediary",
    "subcategory": "Sprzedawcy zobowiązani"
  },
  {
    "id": "CONCESSION_130_UNKNOWN_126",
    "name": "Pilkington Polska Sp. z o.o.",
    "address": "ul. Portowa 24",
    "postalCode": "27-600",
    "city": "Sandomierz",
    "province": "mazowieckie",
    "county": "nieznany",
    "municipality": "Sandomierz",
    "installationType": "UNKNOWN",
    "registrationDate": "",
    "validFrom": "",
    "validTo": "",
    "regon": "",
    "nip": "",
    "exciseNumber": "",
    "fileUrl": "",
    "coordinates": [
      52.02402178018628,
      21.13630061132138
    ],
    "dataType": "CONCESSION",
    "category": "intermediary",
    "subcategory": "Sprzedawcy zobowiązani"
  },
  {
    "id": "CONCESSION_131_UNKNOWN_127",
    "name": "EnercoGrid Sp. z o.o.",
    "address": "ul. Gotarda 9",
    "postalCode": "02-683",
    "city": "Warszawa",
    "province": "mazowieckie",
    "county": "warszawski",
    "municipality": "Warszawa",
    "installationType": "UNKNOWN",
    "registrationDate": "",
    "validFrom": "",
    "validTo": "",
    "regon": "",
    "nip": "",
    "exciseNumber": "",
    "fileUrl": "",
    "coordinates": [
      52.229772952567664,
      21.013195688198696
    ],
    "dataType": "CONCESSION",
    "category": "intermediary",
    "subcategory": "Sprzedawcy zobowiązani"
  },
  {
    "id": "CONCESSION_132_UNKNOWN_128",
    "name": "\"Green Gen Energy Sp. z o.o.\"",
    "address": "Al. Armii Ludowej 26",
    "postalCode": "00-609",
    "city": "Warszawa",
    "province": "mazowieckie",
    "county": "warszawski",
    "municipality": "Warszawa",
    "installationType": "UNKNOWN",
    "registrationDate": "",
    "validFrom": "",
    "validTo": "",
    "regon": "",
    "nip": "",
    "exciseNumber": "",
    "fileUrl": "",
    "coordinates": [
      52.22911038158577,
      21.013035465094106
    ],
    "dataType": "CONCESSION",
    "category": "intermediary",
    "subcategory": "Sprzedawcy zobowiązani"
  },
  {
    "id": "CONCESSION_133_UNKNOWN_129",
    "name": "ESV6 Sp. z o.o.",
    "address": "ul. Ciepłownicza 1A",
    "postalCode": "55-011",
    "city": "Siechnice",
    "province": "mazowieckie",
    "county": "nieznany",
    "municipality": "Siechnice",
    "installationType": "UNKNOWN",
    "registrationDate": "",
    "validFrom": "",
    "validTo": "",
    "regon": "",
    "nip": "",
    "exciseNumber": "",
    "fileUrl": "",
    "coordinates": [
      52.02379591649225,
      21.13606901434528
    ],
    "dataType": "CONCESSION",
    "category": "intermediary",
    "subcategory": "Sprzedawcy zobowiązani"
  },
  {
    "id": "CONCESSION_134_UNKNOWN_130",
    "name": "ESV3 Sp. z o.o.",
    "address": "ul. Ciepłownicza 1A",
    "postalCode": "55-011",
    "city": "Siechnice",
    "province": "mazowieckie",
    "county": "nieznany",
    "municipality": "Siechnice",
    "installationType": "UNKNOWN",
    "registrationDate": "",
    "validFrom": "",
    "validTo": "",
    "regon": "",
    "nip": "",
    "exciseNumber": "",
    "fileUrl": "",
    "coordinates": [
      52.02495534177941,
      21.136129134186064
    ],
    "dataType": "CONCESSION",
    "category": "intermediary",
    "subcategory": "Sprzedawcy zobowiązani"
  },
  {
    "id": "CONCESSION_135_UNKNOWN_131",
    "name": "ESV4 Sp. z o.o.",
    "address": "ul. Ciepłownicza 1A",
    "postalCode": "55-011",
    "city": "Siechnice",
    "province": "mazowieckie",
    "county": "nieznany",
    "municipality": "Siechnice",
    "installationType": "UNKNOWN",
    "registrationDate": "",
    "validFrom": "",
    "validTo": "",
    "regon": "",
    "nip": "",
    "exciseNumber": "",
    "fileUrl": "",
    "coordinates": [
      52.023680997282035,
      21.136066070729235
    ],
    "dataType": "CONCESSION",
    "category": "intermediary",
    "subcategory": "Sprzedawcy zobowiązani"
  },
  {
    "id": "CONCESSION_136_UNKNOWN_132",
    "name": "ESV5 Sp. z o.o.",
    "address": "ul. Ciepłownicza 1A",
    "postalCode": "55-011",
    "city": "Siechnice",
    "province": "mazowieckie",
    "county": "nieznany",
    "municipality": "Siechnice",
    "installationType": "UNKNOWN",
    "registrationDate": "",
    "validFrom": "",
    "validTo": "",
    "regon": "",
    "nip": "",
    "exciseNumber": "",
    "fileUrl": "",
    "coordinates": [
      52.02544344174717,
      21.134958001446336
    ],
    "dataType": "CONCESSION",
    "category": "intermediary",
    "subcategory": "Sprzedawcy zobowiązani"
  },
  {
    "id": "CONCESSION_137_UNKNOWN_133",
    "name": "ESV7 Sp. z o.o.",
    "address": "ul. Ciepłownicza 1A",
    "postalCode": "55-011",
    "city": "Siechnice",
    "province": "mazowieckie",
    "county": "nieznany",
    "municipality": "Siechnice",
    "installationType": "UNKNOWN",
    "registrationDate": "",
    "validFrom": "",
    "validTo": "",
    "regon": "",
    "nip": "",
    "exciseNumber": "",
    "fileUrl": "",
    "coordinates": [
      52.024734799498994,
      21.134923279911174
    ],
    "dataType": "CONCESSION",
    "category": "intermediary",
    "subcategory": "Sprzedawcy zobowiązani"
  },
  {
    "id": "CONCESSION_138_UNKNOWN_134",
    "name": "ESV8 Sp. z o.o.",
    "address": "ul. Ciepłownicza 1A",
    "postalCode": "55-011",
    "city": "Siechnice",
    "province": "mazowieckie",
    "county": "nieznany",
    "municipality": "Siechnice",
    "installationType": "UNKNOWN",
    "registrationDate": "",
    "validFrom": "",
    "validTo": "",
    "regon": "",
    "nip": "",
    "exciseNumber": "",
    "fileUrl": "",
    "coordinates": [
      52.02547051375857,
      21.135462904210126
    ],
    "dataType": "CONCESSION",
    "category": "intermediary",
    "subcategory": "Sprzedawcy zobowiązani"
  },
  {
    "id": "CONCESSION_139_UNKNOWN_135",
    "name": "ESV9 Sp. z o.o.",
    "address": "ul. Ciepłownicza 1A",
    "postalCode": "55-011",
    "city": "Siechnice",
    "province": "mazowieckie",
    "county": "nieznany",
    "municipality": "Siechnice",
    "installationType": "UNKNOWN",
    "registrationDate": "",
    "validFrom": "",
    "validTo": "",
    "regon": "",
    "nip": "",
    "exciseNumber": "",
    "fileUrl": "",
    "coordinates": [
      52.02389271101438,
      21.13480961974246
    ],
    "dataType": "CONCESSION",
    "category": "intermediary",
    "subcategory": "Sprzedawcy zobowiązani"
  },
  {
    "id": "CONCESSION_140_UNKNOWN_136",
    "name": "Zakład Energetyczny Użyteczności Publicznej S.A. z siedzibą w Ząbkach",
    "address": "ul. Radzymińska 326",
    "postalCode": "05-091",
    "city": "Ząbki",
    "province": "mazowieckie",
    "county": "wołomiński",
    "municipality": "Ząbki",
    "installationType": "UNKNOWN",
    "registrationDate": "",
    "validFrom": "",
    "validTo": "",
    "regon": "",
    "nip": "",
    "exciseNumber": "",
    "fileUrl": "",
    "coordinates": [
      52.29265093439421,
      21.114027318116406
    ],
    "dataType": "CONCESSION",
    "category": "intermediary",
    "subcategory": "Sprzedawcy zobowiązani"
  },
  {
    "id": "CONCESSION_141_UNKNOWN_137",
    "name": "WĘGLOKOKS ENERGIA ZCP Sp. z o.o.",
    "address": "ul. Szyb Walenty 32",
    "postalCode": "41-700",
    "city": "Ruda Śląska",
    "province": "śląskie",
    "county": "bieruńsko-lędziński",
    "municipality": "Ruda Śląska",
    "installationType": "UNKNOWN",
    "registrationDate": "",
    "validFrom": "",
    "validTo": "",
    "regon": "",
    "nip": "",
    "exciseNumber": "",
    "fileUrl": "",
    "coordinates": [
      50.25929956784801,
      18.855900242058482
    ],
    "dataType": "CONCESSION",
    "category": "intermediary",
    "subcategory": "Sprzedawcy zobowiązani"
  },
  {
    "id": "CONCESSION_142_UNKNOWN_138",
    "name": "Alchemia S.A.",
    "address": "Al. Jerozolimskie 92",
    "postalCode": "00-807",
    "city": "Warszawa",
    "province": "mazowieckie",
    "county": "warszawski",
    "municipality": "Warszawa",
    "installationType": "UNKNOWN",
    "registrationDate": "",
    "validFrom": "",
    "validTo": "",
    "regon": "",
    "nip": "",
    "exciseNumber": "",
    "fileUrl": "",
    "coordinates": [
      52.229817973821326,
      21.01314691489517
    ],
    "dataType": "CONCESSION",
    "category": "intermediary",
    "subcategory": "Sprzedawcy zobowiązani"
  },
  {
    "id": "CONCESSION_143_UNKNOWN_139",
    "name": "TOKAI COBEX Polska Sp. z o.o.",
    "address": "ul. Piastowska 29",
    "postalCode": "47-400",
    "city": "Racibórz",
    "province": "mazowieckie",
    "county": "nieznany",
    "municipality": "Racibórz",
    "installationType": "UNKNOWN",
    "registrationDate": "",
    "validFrom": "",
    "validTo": "",
    "regon": "",
    "nip": "",
    "exciseNumber": "",
    "fileUrl": "",
    "coordinates": [
      52.02478986256258,
      21.13520590225218
    ],
    "dataType": "CONCESSION",
    "category": "intermediary",
    "subcategory": "Sprzedawcy zobowiązani"
  },
  {
    "id": "CONCESSION_144_UNKNOWN_140",
    "name": "TB Energia Sp. z o.o.",
    "address": "ul. Wróblewskiego 86",
    "postalCode": "94-103",
    "city": "Łódź",
    "province": "łódzkie",
    "county": "łódzki",
    "municipality": "Łódź",
    "installationType": "UNKNOWN",
    "registrationDate": "",
    "validFrom": "",
    "validTo": "",
    "regon": "",
    "nip": "",
    "exciseNumber": "",
    "fileUrl": "",
    "coordinates": [
      51.75826301698783,
      19.455773566406478
    ],
    "dataType": "CONCESSION",
    "category": "intermediary",
    "subcategory": "Sprzedawcy zobowiązani"
  },
  {
    "id": "CONCESSION_145_UNKNOWN_141",
    "name": "Potestia Sp. z o.o.",
    "address": "Al. Jana Pawła II 22",
    "postalCode": "00-133",
    "city": "Warszawa",
    "province": "mazowieckie",
    "county": "warszawski",
    "municipality": "Warszawa",
    "installationType": "UNKNOWN",
    "registrationDate": "",
    "validFrom": "",
    "validTo": "",
    "regon": "",
    "nip": "",
    "exciseNumber": "",
    "fileUrl": "",
    "coordinates": [
      52.22945181422009,
      21.012305528392098
    ],
    "dataType": "CONCESSION",
    "category": "intermediary",
    "subcategory": "Sprzedawcy zobowiązani"
  },
  {
    "id": "CONCESSION_146_UNKNOWN_142",
    "name": "\"Huta Pokój\" S.A.",
    "address": "ul. Piotra Niedurnego 56",
    "postalCode": "41-709",
    "city": "Ruda Śląska",
    "province": "śląskie",
    "county": "bieruńsko-lędziński",
    "municipality": "Ruda Śląska",
    "installationType": "UNKNOWN",
    "registrationDate": "",
    "validFrom": "",
    "validTo": "",
    "regon": "",
    "nip": "",
    "exciseNumber": "",
    "fileUrl": "",
    "coordinates": [
      50.25853821899685,
      18.855236595540468
    ],
    "dataType": "CONCESSION",
    "category": "intermediary",
    "subcategory": "Sprzedawcy zobowiązani"
  },
  {
    "id": "CONCESSION_147_UNKNOWN_143",
    "name": "ESV2 Sp. z o.o.",
    "address": "ul. Ciepłownicza 1A",
    "postalCode": "55-011",
    "city": "Siechnice",
    "province": "mazowieckie",
    "county": "nieznany",
    "municipality": "Siechnice",
    "installationType": "UNKNOWN",
    "registrationDate": "",
    "validFrom": "",
    "validTo": "",
    "regon": "",
    "nip": "",
    "exciseNumber": "",
    "fileUrl": "",
    "coordinates": [
      52.02486160382862,
      21.13647511451715
    ],
    "dataType": "CONCESSION",
    "category": "intermediary",
    "subcategory": "Sprzedawcy zobowiązani"
  },
  {
    "id": "CONCESSION_148_UNKNOWN_144",
    "name": "Elektrociepłownia \"Zielona Góra\" S.A.",
    "address": "ul. Zjednoczenia 103",
    "postalCode": "65-120",
    "city": "Zielona Góra",
    "province": "lubuskie",
    "county": "zielonogórski",
    "municipality": "Zielona Góra",
    "installationType": "UNKNOWN",
    "registrationDate": "",
    "validFrom": "",
    "validTo": "",
    "regon": "",
    "nip": "",
    "exciseNumber": "",
    "fileUrl": "",
    "coordinates": [
      51.93461988752491,
      15.505796653514043
    ],
    "dataType": "CONCESSION",
    "category": "intermediary",
    "subcategory": "Sprzedawcy zobowiązani"
  },
  {
    "id": "CONCESSION_149_UNKNOWN_145",
    "name": "GLOSBE Sp. z o.o.",
    "address": "ul. Rabowicka 65",
    "postalCode": "62-020",
    "city": "Swarzędz",
    "province": "mazowieckie",
    "county": "nieznany",
    "municipality": "Swarzędz",
    "installationType": "UNKNOWN",
    "registrationDate": "",
    "validFrom": "",
    "validTo": "",
    "regon": "",
    "nip": "",
    "exciseNumber": "",
    "fileUrl": "",
    "coordinates": [
      52.02412128675245,
      21.135116555937046
    ],
    "dataType": "CONCESSION",
    "category": "intermediary",
    "subcategory": "Sprzedawcy zobowiązani"
  },
  {
    "id": "CONCESSION_150_UNKNOWN_146",
    "name": "AEC Sp. z o.o.",
    "address": "ul. Stefana Batorego 24",
    "postalCode": "34-120",
    "city": "Andrychów",
    "province": "mazowieckie",
    "county": "nieznany",
    "municipality": "Andrychów",
    "installationType": "UNKNOWN",
    "registrationDate": "",
    "validFrom": "",
    "validTo": "",
    "regon": "",
    "nip": "",
    "exciseNumber": "",
    "fileUrl": "",
    "coordinates": [
      52.0237364192982,
      21.136295859797038
    ],
    "dataType": "CONCESSION",
    "category": "intermediary",
    "subcategory": "Sprzedawcy zobowiązani"
  },
  {
    "id": "CONCESSION_151_UNKNOWN_147",
    "name": "GET EnTra Sp. z o.o.",
    "address": "Al. Jerozolimskie 53",
    "postalCode": "00-697",
    "city": "Warszawa",
    "province": "mazowieckie",
    "county": "warszawski",
    "municipality": "Warszawa",
    "installationType": "UNKNOWN",
    "registrationDate": "",
    "validFrom": "",
    "validTo": "",
    "regon": "",
    "nip": "",
    "exciseNumber": "",
    "fileUrl": "",
    "coordinates": [
      52.230543236051595,
      21.011758621441007
    ],
    "dataType": "CONCESSION",
    "category": "intermediary",
    "subcategory": "Sprzedawcy zobowiązani"
  },
  {
    "id": "CONCESSION_152_UNKNOWN_148",
    "name": "Veolia Wschód Sp. z o.o.",
    "address": "ul. Hrubieszowska 173",
    "postalCode": "22-400",
    "city": "Zamość",
    "province": "lubelskie",
    "county": "zamojski",
    "municipality": "Zamość",
    "installationType": "UNKNOWN",
    "registrationDate": "",
    "validFrom": "",
    "validTo": "",
    "regon": "",
    "nip": "",
    "exciseNumber": "",
    "fileUrl": "",
    "coordinates": [
      50.72208847619488,
      23.25102257189523
    ],
    "dataType": "CONCESSION",
    "category": "intermediary",
    "subcategory": "Sprzedawcy zobowiązani"
  },
  {
    "id": "CONCESSION_153_UNKNOWN_149",
    "name": "Elsen S.A. w upadłości",
    "address": "ul. Koksowa 11",
    "postalCode": "42-202",
    "city": "Częstochowa",
    "province": "śląskie",
    "county": "częstochowski",
    "municipality": "Częstochowa",
    "installationType": "UNKNOWN",
    "registrationDate": "",
    "validFrom": "",
    "validTo": "",
    "regon": "",
    "nip": "",
    "exciseNumber": "",
    "fileUrl": "",
    "coordinates": [
      50.810985451397116,
      19.12027875451882
    ],
    "dataType": "CONCESSION",
    "category": "intermediary",
    "subcategory": "Sprzedawcy zobowiązani"
  },
  {
    "id": "CONCESSION_154_UNKNOWN_150",
    "name": "NEO Dystrybucja Sp. z o.o.",
    "address": "ul. Ignacego Daszyńskiego 54A",
    "postalCode": "59-900",
    "city": "Zgorzelec",
    "province": "mazowieckie",
    "county": "nieznany",
    "municipality": "Zgorzelec",
    "installationType": "UNKNOWN",
    "registrationDate": "",
    "validFrom": "",
    "validTo": "",
    "regon": "",
    "nip": "",
    "exciseNumber": "",
    "fileUrl": "",
    "coordinates": [
      52.02432698565596,
      21.13602739195631
    ],
    "dataType": "CONCESSION",
    "category": "intermediary",
    "subcategory": "Sprzedawcy zobowiązani"
  },
  {
    "id": "CONCESSION_155_UNKNOWN_151",
    "name": "Zespół Elektrociepłowni Wrocławskich Kogeneracja S.A.",
    "address": "ul. Łowiecka 24",
    "postalCode": "50-220",
    "city": "Wrocław",
    "province": "dolnośląskie",
    "county": "wrocławski",
    "municipality": "Wrocław",
    "installationType": "UNKNOWN",
    "registrationDate": "",
    "validFrom": "",
    "validTo": "",
    "regon": "",
    "nip": "",
    "exciseNumber": "",
    "fileUrl": "",
    "coordinates": [
      51.10810461664242,
      17.038295337368666
    ],
    "dataType": "CONCESSION",
    "category": "intermediary",
    "subcategory": "Sprzedawcy zobowiązani"
  },
  {
    "id": "CONCESSION_156_UNKNOWN_152",
    "name": "\"Green Lights Obrót\" Sp. z o.o.",
    "address": "ul. 1 Sierpnia 6",
    "postalCode": "02-134",
    "city": "Warszawa",
    "province": "mazowieckie",
    "county": "warszawski",
    "municipality": "Warszawa",
    "installationType": "UNKNOWN",
    "registrationDate": "",
    "validFrom": "",
    "validTo": "",
    "regon": "",
    "nip": "",
    "exciseNumber": "",
    "fileUrl": "",
    "coordinates": [
      52.23040199197517,
      21.011495102845245
    ],
    "dataType": "CONCESSION",
    "category": "intermediary",
    "subcategory": "Sprzedawcy zobowiązani"
  },
  {
    "id": "CONCESSION_157_UNKNOWN_153",
    "name": "ESV Fabryczna Sp. z o.o.",
    "address": "ul. Fabryczna 16B",
    "postalCode": "53-609",
    "city": "Wrocław",
    "province": "dolnośląskie",
    "county": "wrocławski",
    "municipality": "Wrocław",
    "installationType": "UNKNOWN",
    "registrationDate": "",
    "validFrom": "",
    "validTo": "",
    "regon": "",
    "nip": "",
    "exciseNumber": "",
    "fileUrl": "",
    "coordinates": [
      51.10761425460318,
      17.038751020202017
    ],
    "dataType": "CONCESSION",
    "category": "intermediary",
    "subcategory": "Sprzedawcy zobowiązani"
  },
  {
    "id": "CONCESSION_158_UNKNOWN_154",
    "name": "Zakład Energetyki Cieplnej Sp. z o.o. z siedzibą w Białogardzie",
    "address": "ul. Słowińska 1",
    "postalCode": "78-200",
    "city": "Białogard",
    "province": "mazowieckie",
    "county": "nieznany",
    "municipality": "Białogard",
    "installationType": "UNKNOWN",
    "registrationDate": "",
    "validFrom": "",
    "validTo": "",
    "regon": "",
    "nip": "",
    "exciseNumber": "",
    "fileUrl": "",
    "coordinates": [
      52.02467102667604,
      21.134590872773977
    ],
    "dataType": "CONCESSION",
    "category": "intermediary",
    "subcategory": "Sprzedawcy zobowiązani"
  },
  {
    "id": "CONCESSION_159_UNKNOWN_155",
    "name": "Zarząd Morskiego Portu Gdańsk S.A.",
    "address": "ul. Zamknięta 18",
    "postalCode": "80-955",
    "city": "Gdańsk",
    "province": "pomorskie",
    "county": "gdański",
    "municipality": "Gdańsk",
    "installationType": "UNKNOWN",
    "registrationDate": "",
    "validFrom": "",
    "validTo": "",
    "regon": "",
    "nip": "",
    "exciseNumber": "",
    "fileUrl": "",
    "coordinates": [
      54.35231851666564,
      18.647572714440418
    ],
    "dataType": "CONCESSION",
    "category": "intermediary",
    "subcategory": "Sprzedawcy zobowiązani"
  },
  {
    "id": "CONCESSION_160_UNKNOWN_156",
    "name": "ERG S.A.",
    "address": "ul. Chemiczna 6",
    "postalCode": "42-520",
    "city": "Dąbrowa Górnicza",
    "province": "mazowieckie",
    "county": "nieznany",
    "municipality": "Dąbrowa Górnicza",
    "installationType": "UNKNOWN",
    "registrationDate": "",
    "validFrom": "",
    "validTo": "",
    "regon": "",
    "nip": "",
    "exciseNumber": "",
    "fileUrl": "",
    "coordinates": [
      52.02380991814186,
      21.134487944768164
    ],
    "dataType": "CONCESSION",
    "category": "intermediary",
    "subcategory": "Sprzedawcy zobowiązani"
  },
  {
    "id": "CONCESSION_161_UNKNOWN_157",
    "name": "\"Miejska Energetyka Cieplna\" Sp. z o.o. z siedzibą w Ostrowcu Świętokrzyskim",
    "address": "ul. Sienkiewicza 91",
    "postalCode": "27-400",
    "city": "Ostrowiec Świętokrzyski",
    "province": "mazowieckie",
    "county": "nieznany",
    "municipality": "Ostrowiec Świętokrzyski",
    "installationType": "UNKNOWN",
    "registrationDate": "",
    "validFrom": "",
    "validTo": "",
    "regon": "",
    "nip": "",
    "exciseNumber": "",
    "fileUrl": "",
    "coordinates": [
      52.02477312772434,
      21.1363728301867
    ],
    "dataType": "CONCESSION",
    "category": "intermediary",
    "subcategory": "Sprzedawcy zobowiązani"
  },
  {
    "id": "CONCESSION_162_UNKNOWN_158",
    "name": "PAL2 Sp. z o.o.",
    "address": "ul. Kwidzyńska 11",
    "postalCode": "51-415",
    "city": "Wrocław pal-energia.pl / KRS-pobierz",
    "province": "dolnośląskie",
    "county": "nieznany",
    "municipality": "Wrocław",
    "installationType": "UNKNOWN",
    "registrationDate": "",
    "validFrom": "",
    "validTo": "",
    "regon": "",
    "nip": "",
    "exciseNumber": "",
    "fileUrl": "",
    "coordinates": [
      51.10836275515651,
      17.038976192826386
    ],
    "dataType": "CONCESSION",
    "category": "intermediary",
    "subcategory": "Sprzedawcy zobowiązani"
  },
  {
    "id": "CONCESSION_163_UNKNOWN_159",
    "name": "Biogal Dystrybucja Sp. z o.o.",
    "address": "Boleszyn 7",
    "postalCode": "13-308",
    "city": "Boleszyn dystrybucja.biogal.pl / KRS-pobierz",
    "province": "mazowieckie",
    "county": "nieznany",
    "municipality": "Góra Kalwaria",
    "installationType": "UNKNOWN",
    "registrationDate": "",
    "validFrom": "",
    "validTo": "",
    "regon": "",
    "nip": "",
    "exciseNumber": "",
    "fileUrl": "",
    "coordinates": [
      52.0245014962551,
      21.135326000198422
    ],
    "dataType": "CONCESSION",
    "category": "intermediary",
    "subcategory": "Sprzedawcy zobowiązani"
  },
  {
    "id": "CONCESSION_164_UNKNOWN_160",
    "name": "Kogeneracja Szamotuły S.A.",
    "address": "ul. Czartoria 1/27",
    "postalCode": "61-102",
    "city": "Poznań; ul. Ignacego Łukasiewicza 2, 64-500 Szamotuły kogeneracja-szamotuly.pl / kogeneracjazachod.pl",
    "province": "wielkopolskie",
    "county": "nieznany",
    "municipality": "Poznań",
    "installationType": "UNKNOWN",
    "registrationDate": "",
    "validFrom": "",
    "validTo": "",
    "regon": "",
    "nip": "",
    "exciseNumber": "",
    "fileUrl": "",
    "coordinates": [
      52.40583011979711,
      16.924836018865275
    ],
    "dataType": "CONCESSION",
    "category": "intermediary",
    "subcategory": "Sprzedawcy zobowiązani"
  },
  {
    "id": "CONCESSION_165_UNKNOWN_161",
    "name": "TB2 Energia Sp. z o.o. Sp. k.",
    "address": "ul. 8-go Marca 6",
    "postalCode": "35-959",
    "city": "Rzeszów pge-obrot.pl",
    "province": "podkarpackie",
    "county": "nieznany",
    "municipality": "Rzeszów",
    "installationType": "UNKNOWN",
    "registrationDate": "",
    "validFrom": "",
    "validTo": "",
    "regon": "",
    "nip": "",
    "exciseNumber": "",
    "fileUrl": "",
    "coordinates": [
      50.04205435847482,
      21.998371345919338
    ],
    "dataType": "CONCESSION",
    "category": "intermediary",
    "subcategory": "Sprzedawcy zobowiązani"
  },
  {
    "id": "CONCESSION_166_UNKNOWN_162",
    "name": "Side I Sp. z o.o.",
    "address": "ul. Kwidzyńska 11",
    "postalCode": "51-415",
    "city": "Wrocław side-energia.pl / KRS-pobierz",
    "province": "dolnośląskie",
    "county": "nieznany",
    "municipality": "Wrocław",
    "installationType": "UNKNOWN",
    "registrationDate": "",
    "validFrom": "",
    "validTo": "",
    "regon": "",
    "nip": "",
    "exciseNumber": "",
    "fileUrl": "",
    "coordinates": [
      51.10861766098031,
      17.038462812553146
    ],
    "dataType": "CONCESSION",
    "category": "intermediary",
    "subcategory": "Sprzedawcy zobowiązani"
  },
  {
    "id": "CONCESSION_167_UNKNOWN_163",
    "name": "MA Polska S.A.",
    "address": "ul. 8-go Marca 6",
    "postalCode": "35-959",
    "city": "Rzeszów pge-obrot.pl",
    "province": "podkarpackie",
    "county": "nieznany",
    "municipality": "Rzeszów",
    "installationType": "UNKNOWN",
    "registrationDate": "",
    "validFrom": "",
    "validTo": "",
    "regon": "",
    "nip": "",
    "exciseNumber": "",
    "fileUrl": "",
    "coordinates": [
      50.04055492398483,
      21.999435405001368
    ],
    "dataType": "CONCESSION",
    "category": "intermediary",
    "subcategory": "Sprzedawcy zobowiązani"
  },
  {
    "id": "CONCESSION_168_UNKNOWN_164",
    "name": "FIGENE ENERGIA Sp. z o.o.",
    "address": "ul. Nowogrodzka 6A/13",
    "postalCode": "00-513",
    "city": "Warszawa figene-energia.pl / KRS-pobierz",
    "province": "mazowieckie",
    "county": "nieznany",
    "municipality": "Warszawa",
    "installationType": "UNKNOWN",
    "registrationDate": "",
    "validFrom": "",
    "validTo": "",
    "regon": "",
    "nip": "",
    "exciseNumber": "",
    "fileUrl": "",
    "coordinates": [
      52.23068474200397,
      21.01240486328015
    ],
    "dataType": "CONCESSION",
    "category": "intermediary",
    "subcategory": "Sprzedawcy zobowiązani"
  },
  {
    "id": "CONCESSION_169_UNKNOWN_165",
    "name": "Nowa Energia Dystrybucja Sp. z o.o.",
    "address": "al. Grunwaldzka 472",
    "postalCode": "80-309",
    "city": "Gdańsk grupa.energa.pl",
    "province": "pomorskie",
    "county": "nieznany",
    "municipality": "Gdańsk",
    "installationType": "UNKNOWN",
    "registrationDate": "",
    "validFrom": "",
    "validTo": "",
    "regon": "",
    "nip": "",
    "exciseNumber": "",
    "fileUrl": "",
    "coordinates": [
      54.35125900354789,
      18.64594113676589
    ],
    "dataType": "CONCESSION",
    "category": "intermediary",
    "subcategory": "Sprzedawcy zobowiązani"
  },
  {
    "id": "CONCESSION_170_UNKNOWN_166",
    "name": "CEMENTOWNIA \"WARTA\" S.A.",
    "address": "ul. Przemysłowa 17",
    "postalCode": "98-355",
    "city": "Trębaczew wartasa.com.pl / KRS-pobierz",
    "province": "mazowieckie",
    "county": "nieznany",
    "municipality": "Góra Kalwaria",
    "installationType": "UNKNOWN",
    "registrationDate": "",
    "validFrom": "",
    "validTo": "",
    "regon": "",
    "nip": "",
    "exciseNumber": "",
    "fileUrl": "",
    "coordinates": [
      52.023953793389865,
      21.13527040615589
    ],
    "dataType": "CONCESSION",
    "category": "intermediary",
    "subcategory": "Sprzedawcy zobowiązani"
  },
  {
    "id": "CONCESSION_171_UNKNOWN_167",
    "name": "\"AO ENERGIA\" Sp. z o.o.",
    "address": "ul. Hallera 2A",
    "postalCode": "63-900",
    "city": "Rawicz KRS-pobierz / aleo.com",
    "province": "mazowieckie",
    "county": "nieznany",
    "municipality": "Góra Kalwaria",
    "installationType": "UNKNOWN",
    "registrationDate": "",
    "validFrom": "",
    "validTo": "",
    "regon": "",
    "nip": "",
    "exciseNumber": "",
    "fileUrl": "",
    "coordinates": [
      52.024902785797515,
      21.13577789688399
    ],
    "dataType": "CONCESSION",
    "category": "intermediary",
    "subcategory": "Sprzedawcy zobowiązani"
  },
  {
    "id": "CONCESSION_172_UNKNOWN_168",
    "name": "Regionalna Spółka Energetyczna RSE Sp. z o.o.",
    "address": "ul. Husarska 10",
    "postalCode": "66-400",
    "city": "Gorzów Wlkp. rseoperator.pl / ebok.rseoperator.pl",
    "province": "mazowieckie",
    "county": "nieznany",
    "municipality": "Góra Kalwaria",
    "installationType": "UNKNOWN",
    "registrationDate": "",
    "validFrom": "",
    "validTo": "",
    "regon": "",
    "nip": "",
    "exciseNumber": "",
    "fileUrl": "",
    "coordinates": [
      52.023955314050575,
      21.134812758831455
    ],
    "dataType": "CONCESSION",
    "category": "intermediary",
    "subcategory": "Sprzedawcy zobowiązani"
  },
  {
    "id": "CONCESSION_173_UNKNOWN_169",
    "name": "ZARMEN GPP Sp. z o.o.",
    "address": "ul. Chłodna 51",
    "postalCode": "00-867",
    "city": "Warszawa; ul. Odlewników 20, 42-202 Częstochowa zarmengpp.pl",
    "province": "mazowieckie",
    "county": "nieznany",
    "municipality": "Warszawa",
    "installationType": "UNKNOWN",
    "registrationDate": "",
    "validFrom": "",
    "validTo": "",
    "regon": "",
    "nip": "",
    "exciseNumber": "",
    "fileUrl": "",
    "coordinates": [
      52.228987601622954,
      21.013150255332793
    ],
    "dataType": "CONCESSION",
    "category": "intermediary",
    "subcategory": "Sprzedawcy zobowiązani"
  },
  {
    "id": "CONCESSION_174_UNKNOWN_170",
    "name": "Acpro Sp. z o.o. 1 Sp. K.",
    "address": "Rondo Daszyńskiego 2B",
    "postalCode": "00-843",
    "city": "Warszawa axpo.com",
    "province": "mazowieckie",
    "county": "nieznany",
    "municipality": "Warszawa",
    "installationType": "UNKNOWN",
    "registrationDate": "",
    "validFrom": "",
    "validTo": "",
    "regon": "",
    "nip": "",
    "exciseNumber": "",
    "fileUrl": "",
    "coordinates": [
      52.228999629441,
      21.012675626085965
    ],
    "dataType": "CONCESSION",
    "category": "intermediary",
    "subcategory": "Sprzedawcy zobowiązani"
  },
  {
    "id": "CONCESSION_175_UNKNOWN_171",
    "name": "Grupa Energia Nova GE Sp. z o.o. Sp. K.",
    "address": "ul. Warszawska 40/2A",
    "postalCode": "40-008",
    "city": "Katowice grupaenergianovage.pl / KRS-pobierz",
    "province": "małopolskie",
    "county": "nieznany",
    "municipality": "Katowice",
    "installationType": "UNKNOWN",
    "registrationDate": "",
    "validFrom": "",
    "validTo": "",
    "regon": "",
    "nip": "",
    "exciseNumber": "",
    "fileUrl": "",
    "coordinates": [
      50.26531883122338,
      19.023998592008596
    ],
    "dataType": "CONCESSION",
    "category": "intermediary",
    "subcategory": "Sprzedawcy zobowiązani"
  },
  {
    "id": "CONCESSION_176_UNKNOWN_172",
    "name": "Acpro Sp. z o.o. 2 Sp. K.",
    "address": "ul. Marynarki Polskiej 197",
    "postalCode": "80-868",
    "city": "Gdańsk fortum.pl",
    "province": "pomorskie",
    "county": "nieznany",
    "municipality": "Gdańsk",
    "installationType": "UNKNOWN",
    "registrationDate": "",
    "validFrom": "",
    "validTo": "",
    "regon": "",
    "nip": "",
    "exciseNumber": "",
    "fileUrl": "",
    "coordinates": [
      54.3524347964326,
      18.646664788906953
    ],
    "dataType": "CONCESSION",
    "category": "intermediary",
    "subcategory": "Sprzedawcy zobowiązani"
  },
  {
    "id": "CONCESSION_177_UNKNOWN_173",
    "name": "Clean Energy Operator Sp. z o.o.",
    "address": "ul. Marii Skłodowskiej-Curie 3",
    "postalCode": "41-503",
    "city": "Chorzów ce-operator.pl / imsig.pl",
    "province": "mazowieckie",
    "county": "nieznany",
    "municipality": "Góra Kalwaria",
    "installationType": "UNKNOWN",
    "registrationDate": "",
    "validFrom": "",
    "validTo": "",
    "regon": "",
    "nip": "",
    "exciseNumber": "",
    "fileUrl": "",
    "coordinates": [
      52.02451796450668,
      21.136327336066312
    ],
    "dataType": "CONCESSION",
    "category": "intermediary",
    "subcategory": "Sprzedawcy zobowiązani"
  },
  {
    "id": "CONCESSION_178_UNKNOWN_174",
    "name": "Tauron Ciepło Sp. z o.o.",
    "address": "ul. Grażyńskiego 49",
    "postalCode": "40-126",
    "city": "Katowice cieplo.tauron.pl / BIP",
    "province": "małopolskie",
    "county": "nieznany",
    "municipality": "Katowice",
    "installationType": "UNKNOWN",
    "registrationDate": "",
    "validFrom": "",
    "validTo": "",
    "regon": "",
    "nip": "",
    "exciseNumber": "",
    "fileUrl": "",
    "coordinates": [
      50.265605360653794,
      19.02372933487049
    ],
    "dataType": "CONCESSION",
    "category": "intermediary",
    "subcategory": "Sprzedawcy zobowiązani"
  },
  {
    "id": "CONCESSION_179_UNKNOWN_175",
    "name": "CRK Energia Sp. z o.o.",
    "address": "ul. Kolady 3",
    "postalCode": "02-691",
    "city": "Warszawa ienenergy.pl / KRS-pobierz",
    "province": "mazowieckie",
    "county": "nieznany",
    "municipality": "Warszawa",
    "installationType": "UNKNOWN",
    "registrationDate": "",
    "validFrom": "",
    "validTo": "",
    "regon": "",
    "nip": "",
    "exciseNumber": "",
    "fileUrl": "",
    "coordinates": [
      52.22961302015297,
      21.012599038455466
    ],
    "dataType": "CONCESSION",
    "category": "intermediary",
    "subcategory": "Sprzedawcy zobowiązani"
  },
  {
    "id": "CONCESSION_180_UNKNOWN_176",
    "name": "PAD RES SZTUM Sp. z o.o.",
    "address": "ul. Romualda Mielczarskiego 21/23",
    "postalCode": "42-202",
    "city": "Częstochowa unimot.pl / oneplace.marketplanet.pl",
    "province": "śląskie",
    "county": "nieznany",
    "municipality": "Częstochowa",
    "installationType": "UNKNOWN",
    "registrationDate": "",
    "validFrom": "",
    "validTo": "",
    "regon": "",
    "nip": "",
    "exciseNumber": "",
    "fileUrl": "",
    "coordinates": [
      50.811616932946315,
      19.119745341040915
    ],
    "dataType": "CONCESSION",
    "category": "intermediary",
    "subcategory": "Sprzedawcy zobowiązani"
  },
  {
    "id": "CONCESSION_181_UNKNOWN_177",
    "name": "Acpro Sp. z o.o. 3 Sp. K.",
    "address": "ul. Życzliwa 19",
    "postalCode": "53-030",
    "city": "Wrocław krs-online.com.pl",
    "province": "dolnośląskie",
    "county": "nieznany",
    "municipality": "Wrocław",
    "installationType": "UNKNOWN",
    "registrationDate": "",
    "validFrom": "",
    "validTo": "",
    "regon": "",
    "nip": "",
    "exciseNumber": "",
    "fileUrl": "",
    "coordinates": [
      51.108438316972446,
      17.03812539634812
    ],
    "dataType": "CONCESSION",
    "category": "intermediary",
    "subcategory": "Sprzedawcy zobowiązani"
  }
]