[
  {
    "id": "OPERATOR_69195_0",
    "name": "\"AO ENERGIA\" SPÓŁKA Z OGRANICZONĄ ODPOWIEDZIALNOŚCIĄ",
    "address": "ul. Gen. Józefa Hallera 2a",
    "postalCode": "63-900",
    "city": "Rawicz",
    "province": "wielkopolskie",
    "county": "rawicki",
    "municipality": "Rawicz",
    "installationType": "OSDe",
    "operatorTypeDesc": "Operator systemu dystrybucyjnego elektroenergetycznego",
    "registrationDate": "2022-05-26",
    "validFrom": "2022-07-01",
    "validTo": "2031-12-31",
    "regon": "384173266",
    "nip": "5521725323",
    "fileUrl": "https://api.ure.gov.pl/api/ConcessionFuel/download/2882E77E-A7A4-4583-B41E-F75C05FD588B",
    "operatingArea": "Zgodnie z koncesją nr DEE/426/69195/W/OKR/2022/TK",
    "coordinates": [
      51.610329834647786,
      16.85786179592118
    ],
    "dataType": "OPERATOR",
    "category": "intermediary",
    "subcategory": "Operatorzy systemów"
  },
  {
    "id": "OPERATOR_18596_1",
    "name": "\"BHH-MIKROHUTA\" Sp. z o.o.",
    "address": "ul. Porozumienia Dąbrowskiego 1980 11",
    "postalCode": "42-530",
    "city": "Dąbrowa Górnicza",
    "province": "śląskie",
    "county": "zawierciański",
    "municipality": "Dąbrowa Górnicza",
    "installationType": "OSDe",
    "operatorTypeDesc": "Operator systemu dystrybucyjnego elektroenergetycznego",
    "registrationDate": "2011-06-24",
    "validFrom": "2011-08-01",
    "validTo": "2029-01-01",
    "regon": "276105127",
    "nip": "6292099591",
    "fileUrl": "https://api.ure.gov.pl/api/ConcessionFuel/download/F859F18C-B8F0-4567-8C85-84B9404CD616",
    "operatingArea": "Zgodnie z koncesją nr DEE/86/18596/W/OKA/2008/PF",
    "coordinates": [
      50.36972629986434,
      19.28950023735391
    ],
    "dataType": "OPERATOR",
    "category": "intermediary",
    "subcategory": "Operatorzy systemów"
  },
  {
    "id": "OPERATOR_290_2",
    "name": "\"Ciepłownia Siemianowice\" Sp. z o.o.",
    "address": "ul. Olimpijska 14",
    "postalCode": "41-100",
    "city": "Siemianowice Śląskie",
    "province": "śląskie",
    "county": "katowicki",
    "municipality": "Siemianowice Śląskie",
    "installationType": "OSDe",
    "operatorTypeDesc": "Operator systemu dystrybucyjnego elektroenergetycznego",
    "registrationDate": "2011-09-14",
    "validFrom": "2011-11-01",
    "validTo": "2030-12-31",
    "regon": "270732314",
    "nip": "6430000721",
    "fileUrl": "https://api.ure.gov.pl/api/ConcessionFuel/download/93DA9ACF-89F7-45A4-AB56-E95B52DC54F1",
    "operatingArea": "Zgodnie z koncesją nr PEE/242/290/W/2/2001/MS",
    "coordinates": [
      50.30620130679143,
      19.026801706016624
    ],
    "dataType": "OPERATOR",
    "category": "intermediary",
    "subcategory": "Operatorzy systemów"
  },
  {
    "id": "OPERATOR_23418_3",
    "name": "\"D-ENERGIA\" Spółka z ograniczoną odpowiedzialnością",
    "address": "Wymysłowice 1",
    "postalCode": "88-320",
    "city": "Strzelno",
    "province": "kujawsko-pomorskie",
    "county": "mogileński",
    "municipality": "Góra Kalwaria",
    "installationType": "OSDe",
    "operatorTypeDesc": "Operator systemu dystrybucyjnego elektroenergetycznego",
    "registrationDate": "2014-04-30",
    "validFrom": "2014-05-01",
    "validTo": "2030-12-31",
    "regon": "341430400",
    "nip": "5571696865",
    "fileUrl": "https://api.ure.gov.pl/api/ConcessionFuel/download/8F8EFA3B-170B-4B88-B83A-C88E0850822A",
    "operatingArea": "Zgodnie z koncesją nr DEE/326/23418/W/DRE/2014/BT",
    "coordinates": [
      52.62919612361114,
      18.172458722722293
    ],
    "dataType": "OPERATOR",
    "category": "intermediary",
    "subcategory": "Operatorzy systemów"
  },
  {
    "id": "OPERATOR_4191_4",
    "name": "\"EkoMedia\" Spółka z ograniczoną odpowiedzialnością",
    "address": "ul. Radomska 29",
    "postalCode": "27-200",
    "city": "Starachowice",
    "province": "świętokrzyskie",
    "county": "starachowicki",
    "municipality": "Starachowice",
    "installationType": "OSDe",
    "operatorTypeDesc": "Operator systemu dystrybucyjnego elektroenergetycznego",
    "registrationDate": "2011-11-29",
    "validFrom": "2012-02-01",
    "validTo": "2030-12-31",
    "regon": "292039079",
    "nip": "6641913163",
    "fileUrl": "https://api.ure.gov.pl/api/ConcessionFuel/download/CD948B63-FB4F-4EA5-B71B-3CEFD30FC9DC",
    "operatingArea": "Zgodnie z koncesją nr PEE/260/4191/W/1/2003/MS",
    "coordinates": [
      51.05199840049497,
      21.075261114093095
    ],
    "dataType": "OPERATOR",
    "category": "intermediary",
    "subcategory": "Operatorzy systemów"
  },
  {
    "id": "OPERATOR_18590_5",
    "name": "\"Green Lights Holding\" Sp. z o.o.",
    "address": "ul. 1 Sierpnia 6 Budynek D",
    "postalCode": "02-134",
    "city": "Warszawa",
    "province": "mazowieckie",
    "county": "warszawski",
    "municipality": "Warszawa",
    "installationType": "OSDe",
    "operatorTypeDesc": "Operator systemu dystrybucyjnego elektroenergetycznego",
    "registrationDate": "2016-12-22",
    "validFrom": "2017-02-01",
    "validTo": "2025-12-31",
    "regon": "016429357",
    "nip": "5213202368",
    "fileUrl": "https://api.ure.gov.pl/api/ConcessionFuel/download/C38C2660-248D-4FDC-87A2-94933A7B8C48",
    "operatingArea": "Zgodnie z koncesją nr DEE/364/18590/W/OŁO/2016/KK",
    "coordinates": [
      52.23066869443813,
      21.011318190702507
    ],
    "dataType": "OPERATOR",
    "category": "intermediary",
    "subcategory": "Operatorzy systemów"
  },
  {
    "id": "OPERATOR_599_6",
    "name": "\"Huta Pokój\" Spółka Akcyjna",
    "address": "ul. Niedurnego 56",
    "postalCode": "41-709",
    "city": "Ruda Śląska",
    "province": "śląskie",
    "county": "bieruńsko-lędziński",
    "municipality": "Ruda Śląska",
    "installationType": "OSDe",
    "operatorTypeDesc": "Operator systemu dystrybucyjnego elektroenergetycznego",
    "registrationDate": "2019-04-12",
    "validFrom": "2019-05-01",
    "validTo": "2028-12-31",
    "regon": "271526730",
    "nip": "6410005454",
    "fileUrl": "https://api.ure.gov.pl/api/ConcessionFuel/download/9DBFEF17-07AD-490F-9F02-52003FED03E9",
    "operatingArea": "Zgodnie z koncesją nr PEE/86/599/U/1/98/AS",
    "coordinates": [
      50.25861248189886,
      18.85637889884945
    ],
    "dataType": "OPERATOR",
    "category": "intermediary",
    "subcategory": "Operatorzy systemów"
  },
  {
    "id": "OPERATOR_189_7",
    "name": "\"Miejska Energetyka Cieplna\" sp. z o.o.",
    "address": "ul. Sienkiewicza 91",
    "postalCode": "27-400",
    "city": "Ostrowiec Świętokrzyski",
    "province": "świętokrzyskie",
    "county": "ostrowiecki",
    "municipality": "Ostrowiec Świętokrzyski",
    "installationType": "OSDe",
    "operatorTypeDesc": "Operator systemu dystrybucyjnego elektroenergetycznego",
    "registrationDate": "2020-08-13",
    "validFrom": "2020-10-21",
    "validTo": "2030-12-31",
    "regon": "290513364",
    "nip": "6610000208",
    "fileUrl": "https://api.ure.gov.pl/api/ConcessionFuel/download/94EA5B48-285D-4124-A8AE-D02B71202968",
    "operatingArea": "Zgodnie z koncesją nr DEE/406/189/W/OKA/2020/PS",
    "coordinates": [
      50.93986139881527,
      21.38826476136899
    ],
    "dataType": "OPERATOR",
    "category": "intermediary",
    "subcategory": "Operatorzy systemów"
  },
  {
    "id": "OPERATOR_13618_8",
    "name": "\"Nida Media\" Spółka z ograniczoną odpowiedzialnością",
    "address": "Leszcze 15",
    "postalCode": "28-400",
    "city": "Leszcze",
    "province": "świętokrzyskie",
    "county": "pińczowski",
    "municipality": "Pińczów",
    "installationType": "OSDe",
    "operatorTypeDesc": "Operator systemu dystrybucyjnego elektroenergetycznego",
    "registrationDate": "2010-12-13",
    "validFrom": "2010-12-13",
    "validTo": "2030-12-31",
    "regon": "473209819",
    "nip": "7262464282",
    "fileUrl": "https://api.ure.gov.pl/api/ConcessionFuel/download/C0768BD7-E7B1-41DE-8B68-B08C9DC73B2C",
    "operatingArea": "Zgodnie z koncesją nr DEE/344/13618/W/OKA/2015/AM",
    "coordinates": [
      50.44765820502688,
      20.57337360023148
    ],
    "dataType": "OPERATOR",
    "category": "intermediary",
    "subcategory": "Operatorzy systemów"
  },
  {
    "id": "OPERATOR_2820_9",
    "name": "\"Przedsiębiorstwo Energetyczne\" Sp. z o.o.",
    "address": "ul. Węgierska 144a",
    "postalCode": "33-300",
    "city": "Nowy Sącz",
    "province": "małopolskie",
    "county": "nowosądecki",
    "municipality": "Nowy Sącz",
    "installationType": "OSDe",
    "operatorTypeDesc": "Operator systemu dystrybucyjnego elektroenergetycznego",
    "registrationDate": "2022-07-04",
    "validFrom": "2022-07-20",
    "validTo": "2030-12-31",
    "regon": "492690727",
    "nip": "7342841723",
    "fileUrl": "",
    "operatingArea": "ZAMKNIĘTY SYSTEM DYSTRYBUCYJNY",
    "coordinates": [
      49.6244949515022,
      20.69380989941721
    ],
    "dataType": "OPERATOR",
    "category": "intermediary",
    "subcategory": "Operatorzy systemów"
  },
  {
    "id": "OPERATOR_2820_10",
    "name": "\"Przedsiębiorstwo Energetyczne\" Sp. z o.o.",
    "address": "ul. Węgierska 144a",
    "postalCode": "33-300",
    "city": "Nowy Sącz",
    "province": "małopolskie",
    "county": "nowosądecki",
    "municipality": "Nowy Sącz",
    "installationType": "OSDe",
    "operatorTypeDesc": "Operator systemu dystrybucyjnego elektroenergetycznego",
    "registrationDate": "2012-07-26",
    "validFrom": "2013-01-01",
    "validTo": "2030-12-31",
    "regon": "492690727",
    "nip": "7342841723",
    "fileUrl": "https://api.ure.gov.pl/api/ConcessionFuel/download/B4084526-EA1D-407D-A0B6-0A5025ACA31B",
    "operatingArea": "Zgodnie z koncesją nr PEE/233/2820/W/1/2/2001/AS",
    "coordinates": [
      49.62420883861272,
      20.69422204955228
    ],
    "dataType": "OPERATOR",
    "category": "intermediary",
    "subcategory": "Operatorzy systemów"
  },
  {
    "id": "OPERATOR_213_11",
    "name": "\"Terma-Dom\" Spółka z ograniczoną odpowiedzialnością",
    "address": "ul. Bytomska 112a",
    "postalCode": "41-803",
    "city": "Zabrze",
    "province": "śląskie",
    "county": "zabrzański",
    "municipality": "Zabrze",
    "installationType": "OSDe",
    "operatorTypeDesc": "Operator systemu dystrybucyjnego elektroenergetycznego",
    "registrationDate": "2012-07-12",
    "validFrom": "2012-10-01",
    "validTo": "2025-12-31",
    "regon": "271945740",
    "nip": "6480012258",
    "fileUrl": "https://api.ure.gov.pl/api/ConcessionFuel/download/68979C83-53F3-4D66-BB4E-A3D3D9078911",
    "operatingArea": "Zgodnie z koncesją nr PEE/194/213/W/1/2/99/AS",
    "coordinates": [
      50.32481754620286,
      18.786657662114813
    ],
    "dataType": "OPERATOR",
    "category": "intermediary",
    "subcategory": "Operatorzy systemów"
  },
  {
    "id": "OPERATOR_19231_12",
    "name": "\"U&R Calor\" sp. z o.o.",
    "address": "ul. Morcinka 38",
    "postalCode": "42-580",
    "city": "Wojkowice",
    "province": "śląskie",
    "county": "będziński",
    "municipality": "Wojkowice",
    "installationType": "OSDe",
    "operatorTypeDesc": "Operator systemu dystrybucyjnego elektroenergetycznego",
    "registrationDate": "2012-05-25",
    "validFrom": "2012-09-01",
    "validTo": "2041-11-08",
    "regon": "241727362",
    "nip": "6292447247",
    "fileUrl": "https://api.ure.gov.pl/api/ConcessionFuel/download/B219CE57-A6B0-448D-9C4A-3296CEFD4457",
    "operatingArea": "Zgodnie z koncesją nr DEE/292/19231/W/OKA/2011/CW",
    "coordinates": [
      50.36553056952685,
      19.036330170358404
    ],
    "dataType": "OPERATOR",
    "category": "intermediary",
    "subcategory": "Operatorzy systemów"
  },
  {
    "id": "OPERATOR_13432_13",
    "name": "\"Zael - Energo\" Sp. z o.o.",
    "address": "ul. Grabiszyńska 163 / 510",
    "postalCode": "53-439",
    "city": "Wrocław",
    "province": "dolnośląskie",
    "county": "wrocławski",
    "municipality": "Wrocław",
    "installationType": "OSDe",
    "operatorTypeDesc": "Operator systemu dystrybucyjnego elektroenergetycznego",
    "registrationDate": "2012-09-03",
    "validFrom": "2012-11-01",
    "validTo": "2040-12-31",
    "regon": "020042514",
    "nip": "8942824490",
    "fileUrl": "https://api.ure.gov.pl/api/ConcessionFuel/download/203CB52F-732D-4B6F-9341-A62B651CAFC7",
    "operatingArea": "Zgodnie z koncesją nr DEE/4/13432/W/2/2005/BT",
    "coordinates": [
      51.10849997047032,
      17.038062431566402
    ],
    "dataType": "OPERATOR",
    "category": "intermediary",
    "subcategory": "Operatorzy systemów"
  },
  {
    "id": "OPERATOR_70347_14",
    "name": "\"Zael-Dystrybucja 1\" sp. z o.o.",
    "address": "ul. Grabiszyńska 163 / 510",
    "postalCode": "53-439",
    "city": "Wrocław",
    "province": "dolnośląskie",
    "county": "wrocławski",
    "municipality": "Wrocław",
    "installationType": "OSDe",
    "operatorTypeDesc": "Operator systemu dystrybucyjnego elektroenergetycznego",
    "registrationDate": "2024-10-30",
    "validFrom": "2025-01-01",
    "validTo": "2040-12-31",
    "regon": "020300353",
    "nip": "8942866293",
    "fileUrl": "https://api.ure.gov.pl/api/ConcessionFuel/download/473AF5A8-7282-4E7F-BA64-DFA159925830",
    "operatingArea": "Zgodnie z koncesją nr DEE/460/70347/W/OWR/2024/HK",
    "coordinates": [
      51.107190790904035,
      17.03926450558591
    ],
    "dataType": "OPERATOR",
    "category": "intermediary",
    "subcategory": "Operatorzy systemów"
  },
  {
    "id": "OPERATOR_70638_15",
    "name": "Acpro sp. z o.o. 1 sp. k.",
    "address": "ul. Kościerzyńska 17-19",
    "postalCode": "51-430",
    "city": "Wrocław",
    "province": "dolnośląskie",
    "county": "wrocławski",
    "municipality": "Wrocław",
    "installationType": "OSDe",
    "operatorTypeDesc": "Operator systemu dystrybucyjnego elektroenergetycznego",
    "registrationDate": "2023-01-26",
    "validFrom": "2023-03-01",
    "validTo": "2040-12-31",
    "regon": "520376530",
    "nip": "8992910286",
    "fileUrl": "https://api.ure.gov.pl/api/ConcessionFuel/download/28CFE8E4-DE3A-4F1C-9DB8-0470B360CA00",
    "operatingArea": "Zgodnie z koncesją nr DEE/440/70638/W/OWR/2022/HK",
    "coordinates": [
      51.10718273363682,
      17.03775628559019
    ],
    "dataType": "OPERATOR",
    "category": "intermediary",
    "subcategory": "Operatorzy systemów"
  },
  {
    "id": "OPERATOR_71023_16",
    "name": "Acpro sp. z o.o. 2 sp. k.",
    "address": "ul. Kościerzyńska 17-19",
    "postalCode": "51-430",
    "city": "Wrocław",
    "province": "dolnośląskie",
    "county": "wrocławski",
    "municipality": "Wrocław",
    "installationType": "OSDe",
    "operatorTypeDesc": "Operator systemu dystrybucyjnego elektroenergetycznego",
    "registrationDate": "2023-06-20",
    "validFrom": "2023-07-01",
    "validTo": "2040-12-31",
    "regon": "520376866",
    "nip": "8992910292",
    "fileUrl": "https://api.ure.gov.pl/api/ConcessionFuel/download/9FE5E33B-0AD6-4A9A-89DC-79284BB237E9",
    "operatingArea": "Zgodnie z koncesją nr DEE/444/71023/W/OWR/2023/HK",
    "coordinates": [
      51.10739718196748,
      17.0389752732031
    ],
    "dataType": "OPERATOR",
    "category": "intermediary",
    "subcategory": "Operatorzy systemów"
  },
  {
    "id": "OPERATOR_71159_17",
    "name": "Acpro spółka z ograniczoną odpowiedzialnością 3 spółka komandytowa",
    "address": "ul. Kościerzyńska 17-19",
    "postalCode": "51-430",
    "city": "Wrocław",
    "province": "dolnośląskie",
    "county": "wrocławski",
    "municipality": "Wrocław",
    "installationType": "OSDe",
    "operatorTypeDesc": "Operator systemu dystrybucyjnego elektroenergetycznego",
    "registrationDate": "2023-11-24",
    "validFrom": "2024-01-01",
    "validTo": "2040-12-31",
    "regon": "520382022",
    "nip": "8992910369",
    "fileUrl": "https://api.ure.gov.pl/api/ConcessionFuel/download/144AD808-429B-4A23-A1D3-BB90A12F0AF6",
    "operatingArea": "Zgodnie z koncesją nr DEE/448/71159/W/OWR/2023/HK",
    "coordinates": [
      51.10716063427345,
      17.038779889284868
    ],
    "dataType": "OPERATOR",
    "category": "intermediary",
    "subcategory": "Operatorzy systemów"
  },
  {
    "id": "OPERATOR_64884_18",
    "name": "AEC spółka z ograniczoną odpowiedzialnością",
    "address": "ul. Stefana Batorego 24",
    "postalCode": "34-120",
    "city": "Andrychów",
    "province": "małopolskie",
    "county": "wadowicki",
    "municipality": "Andrychów",
    "installationType": "OSDe",
    "operatorTypeDesc": "Operator systemu dystrybucyjnego elektroenergetycznego",
    "registrationDate": "2019-09-17",
    "validFrom": "2019-09-19",
    "validTo": "2030-12-31",
    "regon": "384207730",
    "nip": "5512641420",
    "fileUrl": "https://api.ure.gov.pl/api/ConcessionFuel/download/07D19159-FBF7-497D-9AB8-0525E4E098B6",
    "operatingArea": "Zgodnie z koncesją nr DEE/398/64884/W/OKR/2019/RF",
    "coordinates": [
      49.855778675711235,
      19.344083643988135
    ],
    "dataType": "OPERATOR",
    "category": "intermediary",
    "subcategory": "Operatorzy systemów"
  },
  {
    "id": "OPERATOR_21961_19",
    "name": "Akademia Śląska",
    "address": "ul. Rolna 43",
    "postalCode": "40-555",
    "city": "Katowice",
    "province": "śląskie",
    "county": "katowicki",
    "municipality": "Katowice",
    "installationType": "OSDe",
    "operatorTypeDesc": "Operator systemu dystrybucyjnego elektroenergetycznego",
    "registrationDate": "2016-02-19",
    "validFrom": "2016-04-01",
    "validTo": "2040-01-01",
    "regon": "278168801",
    "nip": "6342513160",
    "fileUrl": "https://api.ure.gov.pl/api/ConcessionFuel/download/0DF92CF5-F5AE-4C30-A757-EDB177DFBFAD",
    "operatingArea": "Zgodnie z koncesją nr DEE/337/21961/W/OKA/2014/RZ",
    "coordinates": [
      50.26448988180811,
      19.023722991223924
    ],
    "dataType": "OPERATOR",
    "category": "intermediary",
    "subcategory": "Operatorzy systemów"
  },
  {
    "id": "OPERATOR_5430_20",
    "name": "ALCHEMIA S.A.",
    "address": "ul. Aleje Jerozolimskie 92",
    "postalCode": "00-807",
    "city": "Warszawa",
    "province": "mazowieckie",
    "county": "warszawski",
    "municipality": "Warszawa",
    "installationType": "OSDe",
    "operatorTypeDesc": "Operator systemu dystrybucyjnego elektroenergetycznego",
    "registrationDate": "2017-04-07",
    "validFrom": "2017-05-01",
    "validTo": "2030-12-31",
    "regon": "530544669",
    "nip": "7470006096",
    "fileUrl": "https://api.ure.gov.pl/api/ConcessionFuel/download/BE9F13D9-765B-465A-AF23-50B77D12BB93",
    "operatingArea": "Zgodnie z koncesją nr DEE/366/5430/W/OLO/2017/KK",
    "coordinates": [
      52.22948477360422,
      21.0118914289894
    ],
    "dataType": "OPERATOR",
    "category": "intermediary",
    "subcategory": "Operatorzy systemów"
  },
  {
    "id": "OPERATOR_738_21",
    "name": "ANWIL S.A.",
    "address": "ul. Toruńska 222",
    "postalCode": "87-805",
    "city": "Włocławek",
    "province": "kujawsko-pomorskie",
    "county": "włocławski",
    "municipality": "Włocławek",
    "installationType": "OSDe",
    "operatorTypeDesc": "Operator systemu dystrybucyjnego elektroenergetycznego",
    "registrationDate": "2011-06-30",
    "validFrom": "2011-09-01",
    "validTo": "2025-12-31",
    "regon": "910128477",
    "nip": "8880004938",
    "fileUrl": "https://api.ure.gov.pl/api/ConcessionFuel/download/CDBFBEF4-B540-4FC7-B63F-AD1F1558B499",
    "operatingArea": "Zgodnie z koncesją nr PEE/96/738/U/2/98/PK",
    "coordinates": [
      52.648964418707024,
      19.067215069519012
    ],
    "dataType": "OPERATOR",
    "category": "intermediary",
    "subcategory": "Operatorzy systemów"
  },
  {
    "id": "OPERATOR_4336_22",
    "name": "ArcelorMittal Poland Spółka Akcyjna",
    "address": "Al. Józefa Piłsudskiego 92",
    "postalCode": "41-308",
    "city": "Dąbrowa Górnicza",
    "province": "śląskie",
    "county": "zawierciański",
    "municipality": "Dąbrowa Górnicza",
    "installationType": "OSDe",
    "operatorTypeDesc": "Operator systemu dystrybucyjnego elektroenergetycznego",
    "registrationDate": "2013-07-02",
    "validFrom": "2013-11-01",
    "validTo": "2025-12-31",
    "regon": "277839653",
    "nip": "6342463083",
    "fileUrl": "https://api.ure.gov.pl/api/ConcessionFuel/download/1F2BD40A-08CA-4E0A-85D7-4778759106B3",
    "operatingArea": "Zgodnie z koncesją nr PEE/91A/4336/W/OKA/2003/RK",
    "coordinates": [
      50.37053378489957,
      19.288788839172394
    ],
    "dataType": "OPERATOR",
    "category": "intermediary",
    "subcategory": "Operatorzy systemów"
  },
  {
    "id": "OPERATOR_585_23",
    "name": "Arctic Paper Kostrzyn S.A.",
    "address": "ul. Fabryczna 1",
    "postalCode": "66-470",
    "city": "Kostrzyn n/Odrą",
    "province": "lubuskie",
    "county": "gorzowski",
    "municipality": "Kostrzyn nad Odrą",
    "installationType": "OSDe",
    "operatorTypeDesc": "Operator systemu dystrybucyjnego elektroenergetycznego",
    "registrationDate": "2011-02-04",
    "validFrom": "2011-04-01",
    "validTo": "2030-12-31",
    "regon": "003157274",
    "nip": "5980003701",
    "fileUrl": "https://api.ure.gov.pl/api/ConcessionFuel/download/79405505-3DC8-499C-95BB-F00F13861EDA",
    "operatingArea": "Zgodnie z koncesją nr PEE/79/585/U/1/98/AS",
    "coordinates": [
      52.58237663240638,
      14.63484855743176
    ],
    "dataType": "OPERATOR",
    "category": "intermediary",
    "subcategory": "Operatorzy systemów"
  },
  {
    "id": "OPERATOR_65477_24",
    "name": "Biogal Dystrybucja Sp. z o.o.",
    "address": "Boleszyn 7",
    "postalCode": "13-308",
    "city": "Boleszyn",
    "province": "świętokrzyskie",
    "county": "ostrowiecki",
    "municipality": "Grodziczno",
    "installationType": "OSDe",
    "operatorTypeDesc": "Operator systemu dystrybucyjnego elektroenergetycznego",
    "registrationDate": "2020-12-04",
    "validFrom": "2021-01-01",
    "validTo": "2030-08-04",
    "regon": "385325399",
    "nip": "8771482372",
    "fileUrl": "https://api.ure.gov.pl/api/ConcessionFuel/download/58DB643B-FDCD-4449-BCB8-8F6A450F51B6",
    "operatingArea": "Zgodnie z koncesją nr DEE/411/65477/W/OGD/2020/KSm1",
    "coordinates": [
      53.323758074586216,
      19.718785421230116
    ],
    "dataType": "OPERATOR",
    "category": "intermediary",
    "subcategory": "Operatorzy systemów"
  },
  {
    "id": "OPERATOR_13948_25",
    "name": "BŁONIE-PASS STREFA PRZEMYSŁOWA PROSTA SPÓŁKA AKCYJNA",
    "address": "ul. Stefana Batorego 5",
    "postalCode": "05-870",
    "city": "Pass",
    "province": "nieznany",
    "county": "nieokreślony",
    "municipality": "Błonie",
    "installationType": "OSDe",
    "operatorTypeDesc": "Operator systemu dystrybucyjnego elektroenergetycznego",
    "registrationDate": "2025-01-30",
    "validFrom": "2025-02-01",
    "validTo": "2040-12-31",
    "regon": "522167753",
    "nip": "1182242783",
    "fileUrl": "https://api.ure.gov.pl/api/ConcessionFuel/download/1A037F79-C081-43D4-A596-71DA8A5B544C",
    "operatingArea": "Zgodnie z koncesją nr DEE/281/13948/W/2/2010/UA",
    "coordinates": [
      52.208598906156276,
      20.577217483362865
    ],
    "dataType": "OPERATOR",
    "category": "intermediary",
    "subcategory": "Operatorzy systemów"
  },
  {
    "id": "OPERATOR_9426_26",
    "name": "BORYSZEW GREEN ENERGY&GAS Spółka z ograniczoną odpowiedzialnością",
    "address": "ul. M. Skłodowskiej-Curie 73",
    "postalCode": "87-100",
    "city": "Toruń",
    "province": "kujawsko-pomorskie",
    "county": "toruński",
    "municipality": "Toruń",
    "installationType": "OSDe",
    "operatorTypeDesc": "Operator systemu dystrybucyjnego elektroenergetycznego",
    "registrationDate": "2012-02-03",
    "validFrom": "2012-04-01",
    "validTo": "2040-02-25",
    "regon": "871172005",
    "nip": "8792104155",
    "fileUrl": "https://api.ure.gov.pl/api/ConcessionFuel/download/24407868-891B-4302-B66E-81F9BF318313",
    "operatingArea": "Zgodnie z koncesją nr DEE/333/9426/W/DRE/2014/BT",
    "coordinates": [
      53.01391870757689,
      18.59855002469099
    ],
    "dataType": "OPERATOR",
    "category": "intermediary",
    "subcategory": "Operatorzy systemów"
  },
  {
    "id": "OPERATOR_807_27",
    "name": "Boryszew S.A.",
    "address": "Al. Jerozolimskie 92",
    "postalCode": "00-807",
    "city": "Warszawa",
    "province": "mazowieckie",
    "county": "warszawski",
    "municipality": "Warszawa",
    "installationType": "OSDe",
    "operatorTypeDesc": "Operator systemu dystrybucyjnego elektroenergetycznego",
    "registrationDate": "2014-04-02",
    "validFrom": "2012-07-01",
    "validTo": "2042-12-31",
    "regon": "750010992",
    "nip": "8370000634",
    "fileUrl": "https://api.ure.gov.pl/api/ConcessionFuel/download/3DCC687C-AA3A-4516-A937-AF2C3692192D",
    "operatingArea": "Zgodnie z koncesją nr DEE/288/807/W/OKR/2011/JM",
    "coordinates": [
      52.230654698029674,
      21.012894405044094
    ],
    "dataType": "OPERATOR",
    "category": "intermediary",
    "subcategory": "Operatorzy systemów"
  },
  {
    "id": "OPERATOR_4985_28",
    "name": "Celsa Huta Ostrowiec Sp. z o.o.",
    "address": "ul. Samsonowicza 2",
    "postalCode": "27-400",
    "city": "Ostrowiec Świętokrzyski",
    "province": "świętokrzyskie",
    "county": "ostrowiecki",
    "municipality": "Ostrowiec Świętokrzyski",
    "installationType": "OSDe",
    "operatorTypeDesc": "Operator systemu dystrybucyjnego elektroenergetycznego",
    "registrationDate": "2011-01-05",
    "validFrom": "2011-02-01",
    "validTo": "2029-05-10",
    "regon": "016364209",
    "nip": "5272312319",
    "fileUrl": "https://api.ure.gov.pl/api/ConcessionFuel/download/0892EB63-B798-430D-A275-95517D809215",
    "operatingArea": "Zgodnie z koncesją nr PEE/273/4985/W/OŁO/2004/PL",
    "coordinates": [
      50.94040423989164,
      21.387186788728812
    ],
    "dataType": "OPERATOR",
    "category": "intermediary",
    "subcategory": "Operatorzy systemów"
  },
  {
    "id": "OPERATOR_16620_29",
    "name": "CEMENTOWNIA \"WARTA\" S.A.",
    "address": "ul. Przemysłowa 17",
    "postalCode": "98-355",
    "city": "Trębaczew",
    "province": "łódzkie",
    "county": "rawski",
    "municipality": "Sadkowice",
    "installationType": "OSDe",
    "operatorTypeDesc": "Operator systemu dystrybucyjnego elektroenergetycznego",
    "registrationDate": "2022-05-10",
    "validFrom": "2022-08-01",
    "validTo": "2030-12-31",
    "regon": "730001900",
    "nip": "8320003932",
    "fileUrl": "https://api.ure.gov.pl/api/ConcessionFuel/download/F7C73585-2516-43B9-BF8F-244EEBEEFBC5",
    "operatingArea": "Zgodnie z koncesją nr DEE/419/16620/W/OŁO/2021/MRo",
    "coordinates": [
      51.70572705165359,
      20.587847461637597
    ],
    "dataType": "OPERATOR",
    "category": "intermediary",
    "subcategory": "Operatorzy systemów"
  },
  {
    "id": "OPERATOR_185_30",
    "name": "Ciepłownia Sp. z o.o.",
    "address": "ul. Piotrkowska 10/12",
    "postalCode": "95-070",
    "city": "Aleksandrów Łódzki",
    "province": "łódzkie",
    "county": "pabianicki",
    "municipality": "Aleksandrów Łódzki",
    "installationType": "OSDe",
    "operatorTypeDesc": "Operator systemu dystrybucyjnego elektroenergetycznego",
    "registrationDate": "2012-03-16",
    "validFrom": "2012-07-01",
    "validTo": "2030-12-31",
    "regon": "472143863",
    "nip": "7321789124",
    "fileUrl": "https://api.ure.gov.pl/api/ConcessionFuel/download/4FCEF4EA-BB0D-4E14-A5EB-AB03816CDDF7",
    "operatingArea": "Zgodnie z koncesją nr DEE/331/185/W/OLO/2014/KK",
    "coordinates": [
      51.8190598492426,
      19.304418656614235
    ],
    "dataType": "OPERATOR",
    "category": "intermediary",
    "subcategory": "Operatorzy systemów"
  },
  {
    "id": "OPERATOR_70575_31",
    "name": "Clean Energy Operator sp. z o.o.",
    "address": "ul. Skłodowskiej-Curie 3",
    "postalCode": "41-503",
    "city": "Chorzów",
    "province": "śląskie",
    "county": "katowicki",
    "municipality": "Chorzów",
    "installationType": "OSDe",
    "operatorTypeDesc": "Operator systemu dystrybucyjnego elektroenergetycznego",
    "registrationDate": "2023-07-27",
    "validFrom": "2023-09-01",
    "validTo": "2038-05-16",
    "regon": "521719647",
    "nip": "8381877370",
    "fileUrl": "https://api.ure.gov.pl/api/ConcessionFuel/download/3CDE9A98-99A8-48C8-849C-650C7E0493E1",
    "operatingArea": "Zgodnie z koncesją nr DEE/447/70575/W/OKA/2023/PCR",
    "coordinates": [
      50.287961914439016,
      18.96968380753235
    ],
    "dataType": "OPERATOR",
    "category": "intermediary",
    "subcategory": "Operatorzy systemów"
  },
  {
    "id": "OPERATOR_731_32",
    "name": "CMC Poland sp. z o.o.",
    "address": "ul. Piłsudskiego 82",
    "postalCode": "42-400",
    "city": "Zawiercie",
    "province": "śląskie",
    "county": "zawierciański",
    "municipality": "Góra Kalwaria",
    "installationType": "OSDe",
    "operatorTypeDesc": "Operator systemu dystrybucyjnego elektroenergetycznego",
    "registrationDate": "2014-07-10",
    "validFrom": "2014-09-01",
    "validTo": "2030-12-31",
    "regon": "272819315",
    "nip": "6490001173",
    "fileUrl": "https://api.ure.gov.pl/api/ConcessionFuel/download/7F17D79B-2F7C-4A48-BE91-3B4F1FD5CBB9",
    "operatingArea": "Zgodnie z koncesją nr DEE/6/731/W/2/2005/BT",
    "coordinates": [
      50.483750951246016,
      19.43308687158264
    ],
    "dataType": "OPERATOR",
    "category": "intermediary",
    "subcategory": "Operatorzy systemów"
  },
  {
    "id": "OPERATOR_19144_33",
    "name": "CNP Centrum Nakładania Powłok Leszek Rak",
    "address": "ul. Partyzantów 21",
    "postalCode": "42-300",
    "city": "Myszków",
    "province": "śląskie",
    "county": "myszkowski",
    "municipality": "Góra Kalwaria",
    "installationType": "OSDe",
    "operatorTypeDesc": "Operator systemu dystrybucyjnego elektroenergetycznego",
    "registrationDate": "2012-08-09",
    "validFrom": "2012-10-01",
    "validTo": "2030-12-31",
    "regon": "150640631",
    "nip": "5770008678",
    "fileUrl": "https://api.ure.gov.pl/api/ConcessionFuel/download/46B93965-6FA1-46EA-91C1-79996575A2F9",
    "operatingArea": "Zgodnie z koncesją nr DEE/287/19144/W/OKA/2011/CW",
    "coordinates": [
      50.57295303185232,
      19.3221311817598
    ],
    "dataType": "OPERATOR",
    "category": "intermediary",
    "subcategory": "Operatorzy systemów"
  },
  {
    "id": "OPERATOR_63986_34",
    "name": "CRK Energia Sp. z o.o.",
    "address": "ul. Partyzancka 27",
    "postalCode": "63-400",
    "city": "Ostrów Wielkopolski",
    "province": "wielkopolskie",
    "county": "kaliski",
    "municipality": "Ostrów Wielkopolski",
    "installationType": "OSDe",
    "operatorTypeDesc": "Operator systemu dystrybucyjnego elektroenergetycznego",
    "registrationDate": "2024-06-27",
    "validFrom": "2024-08-01",
    "validTo": "2040-12-31",
    "regon": "380303192",
    "nip": "6222816024",
    "fileUrl": "https://api.ure.gov.pl/api/ConcessionFuel/download/C6FC4609-DE78-4A20-9F6D-299BA5507923",
    "operatingArea": "Zgodnie z koncesją nr DEE/450/63986/W/OPO/2024/BHo",
    "coordinates": [
      51.64963564669548,
      17.816238139239143
    ],
    "dataType": "OPERATOR",
    "category": "intermediary",
    "subcategory": "Operatorzy systemów"
  },
  {
    "id": "OPERATOR_9176_35",
    "name": "DALMOR S.A.",
    "address": "ul. Hryniewickiego 10",
    "postalCode": "81-340",
    "city": "Gdynia",
    "province": "pomorskie",
    "county": "gdyński",
    "municipality": "Gdynia",
    "installationType": "OSDe",
    "operatorTypeDesc": "Operator systemu dystrybucyjnego elektroenergetycznego",
    "registrationDate": "2011-07-19",
    "validFrom": "2011-10-01",
    "validTo": "2029-12-31",
    "regon": "190040621",
    "nip": "5860102257",
    "fileUrl": "https://api.ure.gov.pl/api/ConcessionFuel/download/49B5C7AE-8F7B-4AA2-9DFD-2EA86BCB5283",
    "operatingArea": "Zgodnie z koncesją nr PEE/102/9176/W/1/99/MS",
    "coordinates": [
      54.51869762297349,
      18.530592369026838
    ],
    "dataType": "OPERATOR",
    "category": "intermediary",
    "subcategory": "Operatorzy systemów"
  },
  {
    "id": "OPERATOR_459_36",
    "name": "Dolnośląskie Zakłady Usługowo - Produkcyjne DOZAMEL Sp. z o. o.",
    "address": "ul. Fabryczna 10",
    "postalCode": "53-609",
    "city": "Wrocław",
    "province": "dolnośląskie",
    "county": "wrocławski",
    "municipality": "Wrocław",
    "installationType": "OSDe",
    "operatorTypeDesc": "Operator systemu dystrybucyjnego elektroenergetycznego",
    "registrationDate": "2012-11-09",
    "validFrom": "2013-02-01",
    "validTo": "2040-12-31",
    "regon": "931085872",
    "nip": "8960001014",
    "fileUrl": "https://api.ure.gov.pl/api/ConcessionFuel/download/E2E72412-5EAC-42DB-A903-1BEB68990914",
    "operatingArea": "Zgodnie z koncesją nr PEE/47/459/U/1/98/PM",
    "coordinates": [
      51.10800949340238,
      17.039161465582534
    ],
    "dataType": "OPERATOR",
    "category": "intermediary",
    "subcategory": "Operatorzy systemów"
  },
  {
    "id": "OPERATOR_177_37",
    "name": "ECO Jelenia Góra Sp. z o.o.",
    "address": "ul. Karola Miarki 46",
    "postalCode": "58-500",
    "city": "Jelenia Góra",
    "province": "dolnośląskie",
    "county": "jeleniogórski",
    "municipality": "Jelenia Góra",
    "installationType": "OSDe",
    "operatorTypeDesc": "Operator systemu dystrybucyjnego elektroenergetycznego",
    "registrationDate": "2012-10-11",
    "validFrom": "2013-01-01",
    "validTo": "2028-01-01",
    "regon": "230415510",
    "nip": "6110203138",
    "fileUrl": "https://api.ure.gov.pl/api/ConcessionFuel/download/A63C8B76-B710-4E52-B4A6-CA4359526492",
    "operatingArea": "Zgodnie z koncesją nr DEE/284/177/W/OWR/2010/AŁ",
    "coordinates": [
      50.90436963918847,
      15.719173420388579
    ],
    "dataType": "OPERATOR",
    "category": "intermediary",
    "subcategory": "Operatorzy systemów"
  },
  {
    "id": "OPERATOR_22069_38",
    "name": "ECO Kogeneracja Sp. z o.o.",
    "address": "ul. Harcerska 15",
    "postalCode": "45-118",
    "city": "Opole",
    "province": "opolskie",
    "county": "opolski",
    "municipality": "Radzymin",
    "installationType": "OSDe",
    "operatorTypeDesc": "Operator systemu dystrybucyjnego elektroenergetycznego",
    "registrationDate": "2014-04-08",
    "validFrom": "2014-06-01",
    "validTo": "2030-12-31",
    "regon": "101513135",
    "nip": "7752644726",
    "fileUrl": "https://api.ure.gov.pl/api/ConcessionFuel/download/541BB6D8-1843-4623-A207-3435C57822F0",
    "operatingArea": "Zgodnie z koncesją nr DEE/318/22069/W/OLO/2013/KK",
    "coordinates": [
      50.67862067770688,
      17.929673364064325
    ],
    "dataType": "OPERATOR",
    "category": "intermediary",
    "subcategory": "Operatorzy systemów"
  },
  {
    "id": "OPERATOR_9257_39",
    "name": "Edison Next Poland sp. z o.o.",
    "address": "ul. Komorowicka 79A",
    "postalCode": "43-300",
    "city": "Bielsko-Biała",
    "province": "śląskie",
    "county": "bielski",
    "municipality": "Bielsko-Biała",
    "installationType": "OSDe",
    "operatorTypeDesc": "Operator systemu dystrybucyjnego elektroenergetycznego",
    "registrationDate": "2014-06-04",
    "validFrom": "2014-08-01",
    "validTo": "2029-04-15",
    "regon": "072144757",
    "nip": "5471838076",
    "fileUrl": "https://api.ure.gov.pl/api/ConcessionFuel/download/0570A601-26BF-468D-86B6-7C2D06B1568D",
    "operatingArea": "Zgodnie z koncesją nr PEE/137/9257/W/1/2/99/MS",
    "coordinates": [
      49.82313188336634,
      19.044611725224925
    ],
    "dataType": "OPERATOR",
    "category": "intermediary",
    "subcategory": "Operatorzy systemów"
  },
  {
    "id": "OPERATOR_3844_40",
    "name": "EHN Spółka Akcyjna",
    "address": "ul. Jaskółek 12",
    "postalCode": "43-215",
    "city": "Studzienice",
    "province": "pomorskie",
    "county": "bytowski",
    "municipality": "Pszczyna",
    "installationType": "OSDe",
    "operatorTypeDesc": "Operator systemu dystrybucyjnego elektroenergetycznego",
    "registrationDate": "2012-02-03",
    "validFrom": "2012-04-01",
    "validTo": "2025-12-31",
    "regon": "272270668",
    "nip": "6270018013",
    "fileUrl": "https://api.ure.gov.pl/api/ConcessionFuel/download/0B017DBA-4156-488D-BDCE-F935A1EFF1A4",
    "operatingArea": "Zgodnie z koncesją nr DEE/78/3844/W/OKA/2008/HM",
    "coordinates": [
      50.02104343911192,
      18.982543478837968
    ],
    "dataType": "OPERATOR",
    "category": "intermediary",
    "subcategory": "Operatorzy systemów"
  },
  {
    "id": "OPERATOR_21799_41",
    "name": "Elco Energy Spółka z ograniczoną odpowiedzialnością",
    "address": "ul. Chorzowska 109A",
    "postalCode": "40-101",
    "city": "Katowice",
    "province": "śląskie",
    "county": "katowicki",
    "municipality": "Katowice",
    "installationType": "OSDe",
    "operatorTypeDesc": "Operator systemu dystrybucyjnego elektroenergetycznego",
    "registrationDate": "2013-07-26",
    "validFrom": "2013-11-01",
    "validTo": "2033-02-18",
    "regon": "242883880",
    "nip": "6342807944",
    "fileUrl": "https://api.ure.gov.pl/api/ConcessionFuel/download/E3984E0B-9D86-421B-8A98-BB661A55BCD7",
    "operatingArea": "Zgodnie z koncesją nr DEE/312/21799/W/2/2013/AnSz",
    "coordinates": [
      50.264586447660584,
      19.024306511928927
    ],
    "dataType": "OPERATOR",
    "category": "intermediary",
    "subcategory": "Operatorzy systemów"
  },
  {
    "id": "OPERATOR_4439_42",
    "name": "Elektrix S.A. w restrukturyzacji",
    "address": "ul. Bukietowa 5 / U1",
    "postalCode": "02-650",
    "city": "Warszawa",
    "province": "mazowieckie",
    "county": "warszawski",
    "municipality": "Warszawa",
    "installationType": "OSDe",
    "operatorTypeDesc": "Operator systemu dystrybucyjnego elektroenergetycznego",
    "registrationDate": "2016-08-31",
    "validFrom": "2016-09-01",
    "validTo": "2030-12-31",
    "regon": "017319553",
    "nip": "5272347772",
    "fileUrl": "https://api.ure.gov.pl/api/ConcessionFuel/download/341F0AC8-9660-48A0-BF5B-1BFDAD9FFD81",
    "operatingArea": "Zgodnie z koncesją nr DEE/362/4439/W/OŁO/2016/KK",
    "coordinates": [
      52.228833117587946,
      21.011637489954353
    ],
    "dataType": "OPERATOR",
    "category": "intermediary",
    "subcategory": "Operatorzy systemów"
  },
  {
    "id": "OPERATOR_1286_43",
    "name": "Elektrociepłownia \"Zielona Góra\" S.A.",
    "address": "ul. Zjednoczenia 103",
    "postalCode": "65-120",
    "city": "Zielona Góra",
    "province": "lubuskie",
    "county": "zielonogórski",
    "municipality": "Zielona Góra",
    "installationType": "OSDe",
    "operatorTypeDesc": "Operator systemu dystrybucyjnego elektroenergetycznego",
    "registrationDate": "2019-07-15",
    "validFrom": "2019-08-01",
    "validTo": "2030-12-31",
    "regon": "970299278",
    "nip": "9290006902",
    "fileUrl": "https://api.ure.gov.pl/api/ConcessionFuel/download/52FE6D3B-008F-4077-A4A9-C10F4E25812D",
    "operatingArea": "Zgodnie z koncesją nr DEE/385/1286/W/DRE/2018/ZJ",
    "coordinates": [
      51.9351725670464,
      15.506973077269013
    ],
    "dataType": "OPERATOR",
    "category": "intermediary",
    "subcategory": "Operatorzy systemów"
  },
  {
    "id": "OPERATOR_1334_44",
    "name": "Elektrociepłownia Mielec Sp. z o.o.",
    "address": "ul. Wojska Polskiego 3",
    "postalCode": "39-300",
    "city": "Mielec",
    "province": "podkarpackie",
    "county": "mielecki",
    "municipality": "Mielec",
    "installationType": "OSDe",
    "operatorTypeDesc": "Operator systemu dystrybucyjnego elektroenergetycznego",
    "registrationDate": "2012-12-06",
    "validFrom": "2013-01-01",
    "validTo": "2030-12-31",
    "regon": "690239465",
    "nip": "8170005288",
    "fileUrl": "https://api.ure.gov.pl/api/ConcessionFuel/download/08D29D35-B8CC-40A5-B59B-2594E29895BA",
    "operatingArea": "Zgodnie z koncesją nr DEE/81/1334/W/OKR/2008/MG",
    "coordinates": [
      50.287450836150214,
      21.423453015906706
    ],
    "dataType": "OPERATOR",
    "category": "intermediary",
    "subcategory": "Operatorzy systemów"
  },
  {
    "id": "OPERATOR_1337_45",
    "name": "ELEKTROCIEPŁOWNIA ZDUŃSKA WOLA Sp. z o.o.",
    "address": "ul. Murarska 21",
    "postalCode": "98-220",
    "city": "Zduńska Wola",
    "province": "łódzkie",
    "county": "sieradzki",
    "municipality": "Zduńska Wola",
    "installationType": "OSDe",
    "operatorTypeDesc": "Operator systemu dystrybucyjnego elektroenergetycznego",
    "registrationDate": "2012-06-27",
    "validFrom": "2012-10-01",
    "validTo": "2025-12-31",
    "regon": "730307680",
    "nip": "8290006965",
    "fileUrl": "https://api.ure.gov.pl/api/ConcessionFuel/download/0F3835F1-70EB-46F2-AB77-AD22EEA75029",
    "operatingArea": "Zgodnie z koncesją nr DEE/71/1337/W/OŁO/2008/TB",
    "coordinates": [
      51.59555628972966,
      18.949627604387302
    ],
    "dataType": "OPERATOR",
    "category": "intermediary",
    "subcategory": "Operatorzy systemów"
  },
  {
    "id": "OPERATOR_1612_46",
    "name": "Elsen S.A. w upadłości",
    "address": "ul. Koksowa 11",
    "postalCode": "42-202",
    "city": "Częstochowa",
    "province": "śląskie",
    "county": "częstochowski",
    "municipality": "Częstochowa",
    "installationType": "OSDe",
    "operatorTypeDesc": "Operator systemu dystrybucyjnego elektroenergetycznego",
    "registrationDate": "2019-11-14",
    "validFrom": "2019-12-01",
    "validTo": "2029-04-24",
    "regon": "151562821",
    "nip": "9491729613",
    "fileUrl": "https://api.ure.gov.pl/api/ConcessionFuel/download/C3FB734A-45A1-4213-9A0E-73C278BC0295",
    "operatingArea": "Zgodnie z koncesją nr DEE/394/1612/W/OKA/2019/AM",
    "coordinates": [
      50.811362675476964,
      19.121076200005216
    ],
    "dataType": "OPERATOR",
    "category": "intermediary",
    "subcategory": "Operatorzy systemów"
  },
  {
    "id": "OPERATOR_9377_47",
    "name": "Eltronik Acpro sp. z o.o. sp. k.",
    "address": "ul. Kościerzyńska 17-19",
    "postalCode": "51-430",
    "city": "Wrocław",
    "province": "dolnośląskie",
    "county": "wrocławski",
    "municipality": "Wrocław",
    "installationType": "OSDe",
    "operatorTypeDesc": "Operator systemu dystrybucyjnego elektroenergetycznego",
    "registrationDate": "2024-11-21",
    "validFrom": "2024-11-25",
    "validTo": "2040-12-31",
    "regon": "490442422",
    "nip": "7350026587",
    "fileUrl": "https://api.ure.gov.pl/api/ConcessionFuel/download/C7A16918-BEEE-4CA2-A2ED-797761EE2F6B",
    "operatingArea": "Zgodnie z koncesją nr PEE/164/9377/W/1/2/99/RG",
    "coordinates": [
      51.107082842704614,
      17.03866916311529
    ],
    "dataType": "OPERATOR",
    "category": "intermediary",
    "subcategory": "Operatorzy systemów"
  },
  {
    "id": "OPERATOR_24579_48",
    "name": "EMPOL ENERGIA SP. Z O.O.",
    "address": "ul. Michalusa 1",
    "postalCode": "38-320",
    "city": "Gorlice",
    "province": "małopolskie",
    "county": "gorlicki",
    "municipality": "Gorlice",
    "installationType": "OSDe",
    "operatorTypeDesc": "Operator systemu dystrybucyjnego elektroenergetycznego",
    "registrationDate": "2015-10-01",
    "validFrom": "2015-11-01",
    "validTo": "2030-05-14",
    "regon": "123182106",
    "nip": "7382146805",
    "fileUrl": "https://api.ure.gov.pl/api/ConcessionFuel/download/B2339FD6-F6C7-41BE-84DF-06F176F0B0C3",
    "operatingArea": "Zgodnie z koncesją nr DEE/352/24579/W/OKR/2015/JPi1",
    "coordinates": [
      49.65807915471291,
      21.159271928086223
    ],
    "dataType": "OPERATOR",
    "category": "intermediary",
    "subcategory": "Operatorzy systemów"
  },
  {
    "id": "OPERATOR_13854_49",
    "name": "ENEA Operator Sp. z o.o.",
    "address": "ul. Strzeszyńska 58",
    "postalCode": "60-479",
    "city": "Poznań",
    "province": "wielkopolskie",
    "county": "poznański",
    "municipality": "Poznań",
    "installationType": "OSDe",
    "operatorTypeDesc": "Operator systemu dystrybucyjnego elektroenergetycznego",
    "registrationDate": "2007-06-30",
    "validFrom": "2007-07-01",
    "validTo": "2030-07-01",
    "regon": "300455398",
    "nip": "7822377160",
    "fileUrl": "https://api.ure.gov.pl/api/ConcessionFuel/download/C7789FE0-64D1-442B-94A4-821DDCA5D989",
    "operatingArea": "Zgodnie z koncesją nr DEE/50/13854/W/2/2007/PKo",
    "coordinates": [
      52.40704522308993,
      16.925247689101912
    ],
    "dataType": "OPERATOR",
    "category": "intermediary",
    "subcategory": "Operatorzy systemów"
  },
  {
    "id": "OPERATOR_24241_50",
    "name": "EnercoGrid Spółka z ograniczoną odpowiedzialnością",
    "address": "ul. Gotarda 9",
    "postalCode": "02-683",
    "city": "Warszawa",
    "province": "mazowieckie",
    "county": "warszawski",
    "municipality": "Warszawa",
    "installationType": "OSDe",
    "operatorTypeDesc": "Operator systemu dystrybucyjnego elektroenergetycznego",
    "registrationDate": "2018-01-31",
    "validFrom": "2017-07-13",
    "validTo": "2030-12-31",
    "regon": "147309189",
    "nip": "5213674630",
    "fileUrl": "https://api.ure.gov.pl/api/ConcessionFuel/download/BD1955B7-F417-4FCD-A44B-A328C5ABED14",
    "operatingArea": "Zgodnie z koncesją nr DEE/372/24241/W/DRE/2017/BT",
    "coordinates": [
      52.2301701026134,
      21.012684928010376
    ],
    "dataType": "OPERATOR",
    "category": "intermediary",
    "subcategory": "Operatorzy systemów"
  },
  {
    "id": "OPERATOR_2686_51",
    "name": "ENERGA-Operator S.A.",
    "address": "ul. Marynarki Polskiej 130",
    "postalCode": "80-557",
    "city": "Gdańsk",
    "province": "pomorskie",
    "county": "gdański",
    "municipality": "Gdańsk",
    "installationType": "OSDe",
    "operatorTypeDesc": "Operator systemu dystrybucyjnego elektroenergetycznego",
    "registrationDate": "2008-06-24",
    "validFrom": "2008-07-01",
    "validTo": "2030-12-31",
    "regon": "190275904",
    "nip": "5830001190",
    "fileUrl": "https://api.ure.gov.pl/api/ConcessionFuel/download/F5C7CB82-D012-49D5-B296-F1980CFC7DB6",
    "operatingArea": "Zgodnie z koncesją nr PEE/41/2686/U/2/98/BK",
    "coordinates": [
      54.35157813193655,
      18.645768110201406
    ],
    "dataType": "OPERATOR",
    "category": "intermediary",
    "subcategory": "Operatorzy systemów"
  },
  {
    "id": "OPERATOR_21710_52",
    "name": "Energetyka Nowy Dwór Mazowiecki Spółka z ograniczoną odpowiedzialnością",
    "address": "ul. Zakroczymska 30 lok. 118",
    "postalCode": "05-100",
    "city": "Nowy Dwór Mazowiecki",
    "province": "pomorskie",
    "county": "nowodworski",
    "municipality": "Nowy Dwór Mazowiecki",
    "installationType": "OSDe",
    "operatorTypeDesc": "Operator systemu dystrybucyjnego elektroenergetycznego",
    "registrationDate": "2014-03-31",
    "validFrom": "2014-07-01",
    "validTo": "2030-06-01",
    "regon": "146221498",
    "nip": "5311688627",
    "fileUrl": "https://api.ure.gov.pl/api/ConcessionFuel/download/BAFED8B7-0186-4A12-A282-7448A6A425F2",
    "operatingArea": "Zgodnie z koncesją nr DEE/317/21710/W/DRE/2013/BT",
    "coordinates": [
      52.43106335475713,
      20.71645492615279
    ],
    "dataType": "OPERATOR",
    "category": "intermediary",
    "subcategory": "Operatorzy systemów"
  },
  {
    "id": "OPERATOR_141_53",
    "name": "Energetyka Sp. z o.o.",
    "address": "ul. M. Skłodowskiej - Curie 58",
    "postalCode": "59-301",
    "city": "Lubin",
    "province": "dolnośląskie",
    "county": "lubiński",
    "municipality": "Lubin",
    "installationType": "OSDe",
    "operatorTypeDesc": "Operator systemu dystrybucyjnego elektroenergetycznego",
    "registrationDate": "2010-12-03",
    "validFrom": "2011-01-01",
    "validTo": "2025-12-31",
    "regon": "390390792",
    "nip": "6921010700",
    "fileUrl": "https://api.ure.gov.pl/api/ConcessionFuel/download/99CE1C50-ABDF-4E7C-BE01-F1D588CA2A7D",
    "operatingArea": "Zgodnie z koncesją nr PEE/46/141/U/3/98/RW",
    "coordinates": [
      51.39944509459282,
      16.198601271298802
    ],
    "dataType": "OPERATOR",
    "category": "intermediary",
    "subcategory": "Operatorzy systemów"
  },
  {
    "id": "OPERATOR_15714_54",
    "name": "Energetyka Wagon Spółka z ograniczoną odpowiedzialnością",
    "address": "ul. Wysocka 52",
    "postalCode": "63-400",
    "city": "Ostrów Wielkopolski",
    "province": "wielkopolskie",
    "county": "kaliski",
    "municipality": "Ostrów Wielkopolski",
    "installationType": "OSDe",
    "operatorTypeDesc": "Operator systemu dystrybucyjnego elektroenergetycznego",
    "registrationDate": "2012-05-25",
    "validFrom": "2012-08-01",
    "validTo": "2040-12-31",
    "regon": "300467250",
    "nip": "6222629397",
    "fileUrl": "https://api.ure.gov.pl/api/ConcessionFuel/download/65E87858-7728-4126-B158-7BECE3A08E12",
    "operatingArea": "Zgodnie z koncesją nr DEE/38/15714/W/OPO/2007/AJ",
    "coordinates": [
      51.648977889231865,
      17.816642912075974
    ],
    "dataType": "OPERATOR",
    "category": "intermediary",
    "subcategory": "Operatorzy systemów"
  },
  {
    "id": "OPERATOR_21804_55",
    "name": "Energia Euro Park Spółka z ograniczoną odpowiedzialnością",
    "address": "ul. Wojska Polskiego 3",
    "postalCode": "39-300",
    "city": "Mielec",
    "province": "podkarpackie",
    "county": "mielecki",
    "municipality": "Mielec",
    "installationType": "OSDe",
    "operatorTypeDesc": "Operator systemu dystrybucyjnego elektroenergetycznego",
    "registrationDate": "2013-08-22",
    "validFrom": "2013-10-01",
    "validTo": "2033-02-28",
    "regon": "180866889",
    "nip": "8172172671",
    "fileUrl": "https://api.ure.gov.pl/api/ConcessionFuel/download/0B15B042-2693-43F4-A195-1D975084E36D",
    "operatingArea": "Zgodnie z koncesją nr DEE/310/21804/W/2/2013/AnSz",
    "coordinates": [
      50.28668042698473,
      21.423954028999958
    ],
    "dataType": "OPERATOR",
    "category": "intermediary",
    "subcategory": "Operatorzy systemów"
  },
  {
    "id": "OPERATOR_18749_56",
    "name": "ENERGIT Sp. z o.o.",
    "address": "ul. Kamieńskiego 11",
    "postalCode": "30-644",
    "city": "Kraków",
    "province": "małopolskie",
    "county": "krakowski",
    "municipality": "Kraków",
    "installationType": "OSDe",
    "operatorTypeDesc": "Operator systemu dystrybucyjnego elektroenergetycznego",
    "registrationDate": "2012-07-12",
    "validFrom": "2012-10-01",
    "validTo": "2029-12-31",
    "regon": "141278111",
    "nip": "1070011446",
    "fileUrl": "https://api.ure.gov.pl/api/ConcessionFuel/download/58781A7F-02AC-426C-AF02-F67603B7BC40",
    "operatingArea": "Zgodnie z koncesją nr DEE/232/18749/W/OKR/2009/WK",
    "coordinates": [
      50.06478200558879,
      19.94500854068258
    ],
    "dataType": "OPERATOR",
    "category": "intermediary",
    "subcategory": "Operatorzy systemów"
  },
  {
    "id": "OPERATOR_90_57",
    "name": "Energomedia Spółka z ograniczoną odpowiedzialnością",
    "address": "ul. Fabryczna 22",
    "postalCode": "32-540",
    "city": "Trzebinia",
    "province": "małopolskie",
    "county": "chrzanowski",
    "municipality": "Góra Kalwaria",
    "installationType": "OSDe",
    "operatorTypeDesc": "Operator systemu dystrybucyjnego elektroenergetycznego",
    "registrationDate": "2011-04-07",
    "validFrom": "2011-06-01",
    "validTo": "2029-07-15",
    "regon": "273713642",
    "nip": "6281875399",
    "fileUrl": "https://api.ure.gov.pl/api/ConcessionFuel/download/6002A63F-8527-43BF-96FF-4696D05B18CD",
    "operatingArea": "Zgodnie z koncesją nr PEE/167/90/W/1/2/99/AS",
    "coordinates": [
      50.15894210950002,
      19.47048706027643
    ],
    "dataType": "OPERATOR",
    "category": "intermediary",
    "subcategory": "Operatorzy systemów"
  },
  {
    "id": "OPERATOR_1345_58",
    "name": "Energoserwis Kleszczów Sp. z o.o.",
    "address": "ul. Instalacyjna 2",
    "postalCode": "97-427",
    "city": "Rogowiec",
    "province": "łódzkie",
    "county": "bełchatowski",
    "municipality": "Kleszczów",
    "installationType": "OSDe",
    "operatorTypeDesc": "Operator systemu dystrybucyjnego elektroenergetycznego",
    "registrationDate": "2006-02-01",
    "validFrom": "2006-02-01",
    "validTo": "2025-12-31",
    "regon": "590768681",
    "nip": "7691919493",
    "fileUrl": "https://api.ure.gov.pl/api/ConcessionFuel/download/BB7A1223-69B3-46A1-A5D4-D9A623C04AC4",
    "operatingArea": "Zgodnie z koncesją nr PEE/213/1345/W/1/2/2000/MS",
    "coordinates": [
      51.276598672768706,
      19.305353223728332
    ],
    "dataType": "OPERATOR",
    "category": "intermediary",
    "subcategory": "Operatorzy systemów"
  },
  {
    "id": "OPERATOR_18849_59",
    "name": "Energostrefa Sp. z o.o.",
    "address": "ul. Wrocławska 94",
    "postalCode": "41-902",
    "city": "Bytom",
    "province": "śląskie",
    "county": "bytomski",
    "municipality": "Bytom",
    "installationType": "OSDe",
    "operatorTypeDesc": "Operator systemu dystrybucyjnego elektroenergetycznego",
    "registrationDate": "2012-09-04",
    "validFrom": "2012-11-01",
    "validTo": "2030-12-31",
    "regon": "241321861",
    "nip": "6262955246",
    "fileUrl": "https://api.ure.gov.pl/api/ConcessionFuel/download/C4999D08-AEB6-4948-8E5F-4241DB165820",
    "operatingArea": "Zgodnie z koncesją nr DEE/286/18849/W/2/2010/IB",
    "coordinates": [
      50.34765805271096,
      18.916788351848634
    ],
    "dataType": "OPERATOR",
    "category": "intermediary",
    "subcategory": "Operatorzy systemów"
  },
  {
    "id": "OPERATOR_728_60",
    "name": "ENESTA Sp. z o.o.",
    "address": "ul. Kwiatkowskiego 1",
    "postalCode": "37-450",
    "city": "Stalowa Wola",
    "province": "podkarpackie",
    "county": "stalowowolski",
    "municipality": "Stalowa Wola",
    "installationType": "OSDe",
    "operatorTypeDesc": "Operator systemu dystrybucyjnego elektroenergetycznego",
    "registrationDate": "2010-12-02",
    "validFrom": "2011-01-01",
    "validTo": "2030-12-31",
    "regon": "830453070",
    "nip": "8652135842",
    "fileUrl": "https://api.ure.gov.pl/api/ConcessionFuel/download/975E40B0-7763-4098-8A0E-797F0DCE79C9",
    "operatingArea": "Zgodnie z koncesją nr PEE/195/728/W/3/99/MJ",
    "coordinates": [
      50.569244233286824,
      22.054030825000154
    ],
    "dataType": "OPERATOR",
    "category": "intermediary",
    "subcategory": "Operatorzy systemów"
  },
  {
    "id": "OPERATOR_23940_61",
    "name": "ENH2O Sp. z o.o.",
    "address": "Nowomiejska 3",
    "postalCode": "80-864",
    "city": "Gdańsk",
    "province": "pomorskie",
    "county": "gdański",
    "municipality": "Gdańsk",
    "installationType": "OSDe",
    "operatorTypeDesc": "Operator systemu dystrybucyjnego elektroenergetycznego",
    "registrationDate": "2015-11-09",
    "validFrom": "2016-01-01",
    "validTo": "2030-10-02",
    "regon": "222055070",
    "nip": "5833166000",
    "fileUrl": "https://api.ure.gov.pl/api/ConcessionFuel/download/84164A9B-34D1-4F05-AC21-DD11EA956A33",
    "operatingArea": "Zgodnie z koncesją nr DEE/348/23940/W/OGD/2015/PWi",
    "coordinates": [
      54.3528828471264,
      18.646595051610745
    ],
    "dataType": "OPERATOR",
    "category": "intermediary",
    "subcategory": "Operatorzy systemów"
  },
  {
    "id": "OPERATOR_1198_62",
    "name": "ERG S.A.",
    "address": "ul. Chemiczna 6",
    "postalCode": "42-520",
    "city": "Dąbrowa Górnicza",
    "province": "śląskie",
    "county": "zawierciański",
    "municipality": "Dąbrowa Górnicza",
    "installationType": "OSDe",
    "operatorTypeDesc": "Operator systemu dystrybucyjnego elektroenergetycznego",
    "registrationDate": "2020-07-15",
    "validFrom": "2020-09-06",
    "validTo": "2030-09-04",
    "regon": "272242844",
    "nip": "6290011681",
    "fileUrl": "https://api.ure.gov.pl/api/ConcessionFuel/download/E0359D0E-0FC0-4F8A-9CA7-4CB5EDD51569",
    "operatingArea": "Zgodnie z koncesją nr DEE/410/1198/W/OKA/2020/PS",
    "coordinates": [
      50.330039839646545,
      19.207527909583614
    ],
    "dataType": "OPERATOR",
    "category": "intermediary",
    "subcategory": "Operatorzy systemów"
  },
  {
    "id": "OPERATOR_19233_63",
    "name": "ERGO ENERGY Sp. z o.o.",
    "address": "ul. Jerzego Waszyngtona 34/36",
    "postalCode": "81-342",
    "city": "Gdynia",
    "province": "pomorskie",
    "county": "gdyński",
    "municipality": "Gdynia",
    "installationType": "OSDe",
    "operatorTypeDesc": "Operator systemu dystrybucyjnego elektroenergetycznego",
    "registrationDate": "2015-12-28",
    "validFrom": "2016-02-01",
    "validTo": "2030-12-31",
    "regon": "221202178",
    "nip": "5851460460",
    "fileUrl": "https://api.ure.gov.pl/api/ConcessionFuel/download/01692256-7FF5-45F7-AEE2-B8BD572DF8EE",
    "operatingArea": "Zgodnie z koncesją nr DEE/340/19233/W/DRE/2015/ŁG",
    "coordinates": [
      54.51938230970234,
      18.530541287676943
    ],
    "dataType": "OPERATOR",
    "category": "intermediary",
    "subcategory": "Operatorzy systemów"
  },
  {
    "id": "OPERATOR_17261_64",
    "name": "ESV Fabryczna Sp. z o.o.",
    "address": "ul. Fabryczna 16b",
    "postalCode": "53-609",
    "city": "Wrocław",
    "province": "dolnośląskie",
    "county": "wrocławski",
    "municipality": "Wrocław",
    "installationType": "OSDe",
    "operatorTypeDesc": "Operator systemu dystrybucyjnego elektroenergetycznego",
    "registrationDate": "2020-04-27",
    "validFrom": "2020-05-01",
    "validTo": "2030-02-09",
    "regon": "020847353",
    "nip": "8971746522",
    "fileUrl": "https://api.ure.gov.pl/api/ConcessionFuel/download/8F1EFB9C-8951-4F6B-B621-FB944C687831",
    "operatingArea": "Zgodnie z koncesją nr DEE/407/17261/W/OWR/2020/MŚ",
    "coordinates": [
      51.10713554552001,
      17.039429798654485
    ],
    "dataType": "OPERATOR",
    "category": "intermediary",
    "subcategory": "Operatorzy systemów"
  },
  {
    "id": "OPERATOR_12970_65",
    "name": "ESV Metalchem Sp. z o.o.",
    "address": "ul. Oświęcimska 102D",
    "postalCode": "45-641",
    "city": "Opole",
    "province": "opolskie",
    "county": "opolski",
    "municipality": "Radzymin",
    "installationType": "OSDe",
    "operatorTypeDesc": "Operator systemu dystrybucyjnego elektroenergetycznego",
    "registrationDate": "2011-11-03",
    "validFrom": "2012-01-01",
    "validTo": "2030-12-31",
    "regon": "160002704",
    "nip": "7542783918",
    "fileUrl": "https://api.ure.gov.pl/api/ConcessionFuel/download/3BC8B70B-79E4-45B5-B3B1-E7C96337D6A7",
    "operatingArea": "Zgodnie z koncesją nr DEE/332/12970/W/OWR/2014/RP",
    "coordinates": [
      50.67842558282779,
      17.92973644395502
    ],
    "dataType": "OPERATOR",
    "category": "intermediary",
    "subcategory": "Operatorzy systemów"
  },
  {
    "id": "OPERATOR_65_66",
    "name": "ESV Wisłosan Spółka z ograniczoną odpowiedzialnością",
    "address": "ul. Metalowca 4",
    "postalCode": "39-460",
    "city": "Nowa Dęba",
    "province": "podkarpackie",
    "county": "leżajski",
    "municipality": "Nowa Dęba",
    "installationType": "OSDe",
    "operatorTypeDesc": "Operator systemu dystrybucyjnego elektroenergetycznego",
    "registrationDate": "2011-12-20",
    "validFrom": "2012-03-01",
    "validTo": "2030-12-31",
    "regon": "830393505",
    "nip": "8671871281",
    "fileUrl": "https://api.ure.gov.pl/api/ConcessionFuel/download/783FFEC4-8D9E-49F7-9AB3-25A282B727CE",
    "operatingArea": "Zgodnie z koncesją nr PEE/14/65/W/1/98/RG",
    "coordinates": [
      50.414306503998034,
      21.754427531923998
    ],
    "dataType": "OPERATOR",
    "category": "intermediary",
    "subcategory": "Operatorzy systemów"
  },
  {
    "id": "OPERATOR_31955_67",
    "name": "ESV2 sp. z o.o.",
    "address": "ul. Ciepłownicza 1a",
    "postalCode": "55-011",
    "city": "Siechnice",
    "province": "dolnośląskie",
    "county": "wrocławski",
    "municipality": "Siechnice",
    "installationType": "OSDe",
    "operatorTypeDesc": "Operator systemu dystrybucyjnego elektroenergetycznego",
    "registrationDate": "2019-05-27",
    "validFrom": "2019-07-01",
    "validTo": "2030-12-31",
    "regon": "022501446",
    "nip": "8961539632",
    "fileUrl": "https://api.ure.gov.pl/api/ConcessionFuel/download/C07E80A2-A0CF-4DE4-A8E0-78B855C60801",
    "operatingArea": "Zgodnie z koncesją nr DEE/388/31955/W/OWR/2019/RP",
    "coordinates": [
      51.032936734506066,
      17.151166480319922
    ],
    "dataType": "OPERATOR",
    "category": "intermediary",
    "subcategory": "Operatorzy systemów"
  },
  {
    "id": "OPERATOR_24767_68",
    "name": "ESV3 Sp. z o.o.",
    "address": "ul. Ciepłownicza 1A",
    "postalCode": "55-011",
    "city": "Siechnice",
    "province": "dolnośląskie",
    "county": "wrocławski",
    "municipality": "Siechnice",
    "installationType": "OSDe",
    "operatorTypeDesc": "Operator systemu dystrybucyjnego elektroenergetycznego",
    "registrationDate": "2017-03-20",
    "validFrom": "2017-05-01",
    "validTo": "2030-12-31",
    "regon": "022501423",
    "nip": "8961539649",
    "fileUrl": "https://api.ure.gov.pl/api/ConcessionFuel/download/429975AF-61FC-49D2-ACFC-D40916F238DB",
    "operatingArea": "Zgodnie z koncesją nr DEE/354/24767/W/DRE/2015/BT",
    "coordinates": [
      51.0330723809846,
      17.15129603076955
    ],
    "dataType": "OPERATOR",
    "category": "intermediary",
    "subcategory": "Operatorzy systemów"
  },
  {
    "id": "OPERATOR_24814_69",
    "name": "ESV4 Spółka z ograniczoną odpowiedzialnością",
    "address": "ul. Ciepłownicza 1A",
    "postalCode": "55-011",
    "city": "Siechnice",
    "province": "dolnośląskie",
    "county": "wrocławski",
    "municipality": "Siechnice",
    "installationType": "OSDe",
    "operatorTypeDesc": "Operator systemu dystrybucyjnego elektroenergetycznego",
    "registrationDate": "2017-03-20",
    "validFrom": "2017-05-01",
    "validTo": "2030-12-31",
    "regon": "022501430",
    "nip": "8961539661",
    "fileUrl": "https://api.ure.gov.pl/api/ConcessionFuel/download/C8D69F97-CF65-4331-87F1-59B4688916B2",
    "operatingArea": "Zgodnie z koncesją nr DEE/357/24814/W/DRE/2015/BT",
    "coordinates": [
      51.031844317960065,
      17.150743964122647
    ],
    "dataType": "OPERATOR",
    "category": "intermediary",
    "subcategory": "Operatorzy systemów"
  },
  {
    "id": "OPERATOR_24670_70",
    "name": "ESV5 Sp .z o.o.",
    "address": "ul. Ciepłownicza 1a",
    "postalCode": "55-011",
    "city": "Siechnice",
    "province": "dolnośląskie",
    "county": "wrocławski",
    "municipality": "Siechnice",
    "installationType": "OSDe",
    "operatorTypeDesc": "Operator systemu dystrybucyjnego elektroenergetycznego",
    "registrationDate": "2017-03-20",
    "validFrom": "2017-05-01",
    "validTo": "2030-12-31",
    "regon": "022501340",
    "nip": "8961539678",
    "fileUrl": "https://api.ure.gov.pl/api/ConcessionFuel/download/036A66BA-4ED5-4169-BA4E-74CB9DC5E6B7",
    "operatingArea": "Zgodnie z koncesją nr DEE/349/24670/W/OWR/2015/HK",
    "coordinates": [
      51.03214340561396,
      17.150209253101576
    ],
    "dataType": "OPERATOR",
    "category": "intermediary",
    "subcategory": "Operatorzy systemów"
  },
  {
    "id": "OPERATOR_23861_71",
    "name": "ESV6 Sp. z o.o.",
    "address": "ul. Ciepłownicza 1a",
    "postalCode": "55-011",
    "city": "Siechnice",
    "province": "dolnośląskie",
    "county": "wrocławski",
    "municipality": "Siechnice",
    "installationType": "OSDe",
    "operatorTypeDesc": "Operator systemu dystrybucyjnego elektroenergetycznego",
    "registrationDate": "2017-03-23",
    "validFrom": "2017-05-01",
    "validTo": "2030-12-31",
    "regon": "022432900",
    "nip": "8961538118",
    "fileUrl": "https://api.ure.gov.pl/api/ConcessionFuel/download/5B248FA3-F4E4-4768-A783-455EAAC8C04F",
    "operatingArea": "Zgodnie z koncesją nr DEE/329/23861/W/OWR/2014/HK",
    "coordinates": [
      51.03330098918132,
      17.151491906147452
    ],
    "dataType": "OPERATOR",
    "category": "intermediary",
    "subcategory": "Operatorzy systemów"
  },
  {
    "id": "OPERATOR_24480_72",
    "name": "ESV7 Sp. z o.o.",
    "address": "ul. Ciepłownicza 1a",
    "postalCode": "55-011",
    "city": "Siechnice",
    "province": "dolnośląskie",
    "county": "wrocławski",
    "municipality": "Siechnice",
    "installationType": "OSDe",
    "operatorTypeDesc": "Operator systemu dystrybucyjnego elektroenergetycznego",
    "registrationDate": "2017-03-23",
    "validFrom": "2017-05-01",
    "validTo": "2030-12-31",
    "regon": "022502227",
    "nip": "8961539684",
    "fileUrl": "https://api.ure.gov.pl/api/ConcessionFuel/download/04EDCF2E-CBD6-42C0-A001-69998FFA493E",
    "operatingArea": "Zgodnie z koncesją nr DEE/342/24480/W/OWR/2015/HK",
    "coordinates": [
      51.032930982127795,
      17.150826080692823
    ],
    "dataType": "OPERATOR",
    "category": "intermediary",
    "subcategory": "Operatorzy systemów"
  },
  {
    "id": "OPERATOR_24481_73",
    "name": "ESV8 Sp. z o.o.",
    "address": "ul. Ciepłownicza 1a",
    "postalCode": "55-011",
    "city": "Siechnice",
    "province": "dolnośląskie",
    "county": "wrocławski",
    "municipality": "Siechnice",
    "installationType": "OSDe",
    "operatorTypeDesc": "Operator systemu dystrybucyjnego elektroenergetycznego",
    "registrationDate": "2017-03-23",
    "validFrom": "2017-05-01",
    "validTo": "2030-12-31",
    "regon": "022501417",
    "nip": "8961539709",
    "fileUrl": "https://api.ure.gov.pl/api/ConcessionFuel/download/B94F93B9-5B82-4789-A388-EB01FE7A5EA3",
    "operatingArea": "Zgodnie z koncesją nr DEE/341/24481/W/OWR/2015/HK",
    "coordinates": [
      51.03214706953096,
      17.151099855127736
    ],
    "dataType": "OPERATOR",
    "category": "intermediary",
    "subcategory": "Operatorzy systemów"
  },
  {
    "id": "OPERATOR_24482_74",
    "name": "ESV9 Sp. z o.o.",
    "address": "ul. Ciepłownicza 1a",
    "postalCode": "55-011",
    "city": "Siechnice",
    "province": "dolnośląskie",
    "county": "wrocławski",
    "municipality": "Siechnice",
    "installationType": "OSDe",
    "operatorTypeDesc": "Operator systemu dystrybucyjnego elektroenergetycznego",
    "registrationDate": "2017-03-23",
    "validFrom": "2017-05-01",
    "validTo": "2030-12-31",
    "regon": "022501400",
    "nip": "8961539715",
    "fileUrl": "https://api.ure.gov.pl/api/ConcessionFuel/download/55D81315-A5E5-4209-A904-9F3D0414B3D6",
    "operatingArea": "Zgodnie z koncesją nr DEE/343/24482/W/OWR/2015/HK",
    "coordinates": [
      51.032726405247864,
      17.15159570951883
    ],
    "dataType": "OPERATOR",
    "category": "intermediary",
    "subcategory": "Operatorzy systemów"
  },
  {
    "id": "OPERATOR_591_75",
    "name": "Fabryka Łożysk Tocznych - Kraśnik S.A.",
    "address": "ul. Fabryczna 6",
    "postalCode": "23-210",
    "city": "Kraśnik",
    "province": "lubelskie",
    "county": "kraśnicki",
    "municipality": "Kraśnik",
    "installationType": "OSDe",
    "operatorTypeDesc": "Operator systemu dystrybucyjnego elektroenergetycznego",
    "registrationDate": "2022-04-13",
    "validFrom": "2022-05-01",
    "validTo": "2030-12-31",
    "regon": "430459300",
    "nip": "7150200738",
    "fileUrl": "",
    "operatingArea": "ZAMKNIĘTY SYSTEM DYSTRYBUCYJNY",
    "coordinates": [
      50.94295791400915,
      22.20753758611683
    ],
    "dataType": "OPERATOR",
    "category": "intermediary",
    "subcategory": "Operatorzy systemów"
  },
  {
    "id": "OPERATOR_591_76",
    "name": "Fabryka Łożysk Tocznych - Kraśnik S.A.",
    "address": "ul. Fabryczna 6",
    "postalCode": "23-210",
    "city": "Kraśnik",
    "province": "lubelskie",
    "county": "kraśnicki",
    "municipality": "Kraśnik",
    "installationType": "OSDe",
    "operatorTypeDesc": "Operator systemu dystrybucyjnego elektroenergetycznego",
    "registrationDate": "2011-02-04",
    "validFrom": "2011-04-01",
    "validTo": "2030-12-31",
    "regon": "430459300",
    "nip": "7150200738",
    "fileUrl": "https://api.ure.gov.pl/api/ConcessionFuel/download/262245B1-54E5-4C85-B678-F30E7FBF7433",
    "operatingArea": "Zgodnie z koncesją nr DEE/591/W/OLB/2009/MSZ",
    "coordinates": [
      50.94402732578275,
      22.209031601966874
    ],
    "dataType": "OPERATOR",
    "category": "intermediary",
    "subcategory": "Operatorzy systemów"
  },
  {
    "id": "OPERATOR_673_77",
    "name": "Federal-Mogul Gorzyce Sp. z o.o.",
    "address": "ul. Odlewników 52",
    "postalCode": "39-432",
    "city": "Gorzyce",
    "province": "kujawsko-pomorskie",
    "county": "żniński",
    "municipality": "Gorzyce",
    "installationType": "OSDe",
    "operatorTypeDesc": "Operator systemu dystrybucyjnego elektroenergetycznego",
    "registrationDate": "2012-09-17",
    "validFrom": "2012-11-01",
    "validTo": "2034-12-06",
    "regon": "000036908",
    "nip": "8670003039",
    "fileUrl": "https://api.ure.gov.pl/api/ConcessionFuel/download/A6E21E36-46EB-4A74-9945-8FF7F9728A83",
    "operatingArea": "Zgodnie z koncesją nr PEE/284/673/W/2/2004/BT",
    "coordinates": [
      50.66819922383119,
      21.837663369996417
    ],
    "dataType": "OPERATOR",
    "category": "intermediary",
    "subcategory": "Operatorzy systemów"
  },
  {
    "id": "OPERATOR_64002_78",
    "name": "Fieldon Investments Spółka z ograniczoną odpowiedzialnością Gryf Spółka jawna",
    "address": "ul. Dobra 40",
    "postalCode": "00-344",
    "city": "Warszawa",
    "province": "mazowieckie",
    "county": "warszawski",
    "municipality": "Warszawa",
    "installationType": "OSDe",
    "operatorTypeDesc": "Operator systemu dystrybucyjnego elektroenergetycznego",
    "registrationDate": "2019-11-07",
    "validFrom": "2019-12-01",
    "validTo": "2030-12-31",
    "regon": "221041730",
    "nip": "5842697547",
    "fileUrl": "https://api.ure.gov.pl/api/ConcessionFuel/download/91966183-8544-41EE-A557-D3228E7DC504",
    "operatingArea": "Zgodnie z koncesją nr DEE/383/64002/W/OLO/2018/MGG",
    "coordinates": [
      52.23038877917741,
      21.012799827179656
    ],
    "dataType": "OPERATOR",
    "category": "intermediary",
    "subcategory": "Operatorzy systemów"
  },
  {
    "id": "OPERATOR_24679_79",
    "name": "FIGENE ENERGIA Spółka z ograniczoną odpowiedzialnością",
    "address": "ul. Nowogrodzka 6A / 13",
    "postalCode": "00-513",
    "city": "Warszawa",
    "province": "mazowieckie",
    "county": "warszawski",
    "municipality": "Warszawa",
    "installationType": "OSDe",
    "operatorTypeDesc": "Operator systemu dystrybucyjnego elektroenergetycznego",
    "registrationDate": "2022-02-02",
    "validFrom": "2022-03-01",
    "validTo": "2031-11-03",
    "regon": "360654168",
    "nip": "5252607342",
    "fileUrl": "https://api.ure.gov.pl/api/ConcessionFuel/download/ED405482-FA86-44CC-A6B3-AFA112D59A27",
    "operatingArea": "Zgodnie z koncesją nr DEE/422/24679/W/OŁO/2021/KK",
    "coordinates": [
      52.22989161234199,
      21.01150159226549
    ],
    "dataType": "OPERATOR",
    "category": "intermediary",
    "subcategory": "Operatorzy systemów"
  },
  {
    "id": "OPERATOR_19133_80",
    "name": "FPM S.A.",
    "address": "ul. Wyzwolenia 12c",
    "postalCode": "43-190",
    "city": "Mikołów",
    "province": "śląskie",
    "county": "mikołowski",
    "municipality": "Mikołów",
    "installationType": "OSDe",
    "operatorTypeDesc": "Operator systemu dystrybucyjnego elektroenergetycznego",
    "registrationDate": "2012-09-25",
    "validFrom": "2013-01-01",
    "validTo": "2030-12-31",
    "regon": "271569520",
    "nip": "6350000593",
    "fileUrl": "https://api.ure.gov.pl/api/ConcessionFuel/download/68C1D791-7FF1-47E3-83BB-E7259B3829B7",
    "operatingArea": "Zgodnie z koncesją nr DEE/290/19133/W/OKA/2011/KR",
    "coordinates": [
      50.196322772004756,
      18.853799670144387
    ],
    "dataType": "OPERATOR",
    "category": "intermediary",
    "subcategory": "Operatorzy systemów"
  },
  {
    "id": "OPERATOR_9037_81",
    "name": "GET EnTra Spółka z ograniczoną odpowiedzialnością",
    "address": "Al. Jerozolimskie 53",
    "postalCode": "00-697",
    "city": "Warszawa",
    "province": "mazowieckie",
    "county": "warszawski",
    "municipality": "Warszawa",
    "installationType": "OSDe",
    "operatorTypeDesc": "Operator systemu dystrybucyjnego elektroenergetycznego",
    "registrationDate": "2019-10-24",
    "validFrom": "2019-12-01",
    "validTo": "2030-12-31",
    "regon": "013143413",
    "nip": "5252072533",
    "fileUrl": "https://api.ure.gov.pl/api/ConcessionFuel/download/23FA7DD7-43ED-48B1-9AC7-AEAC0E975229",
    "operatingArea": "Zgodnie z koncesją nr DEE/390/9037/W/DRE/2019/ZJ",
    "coordinates": [
      52.2304404200818,
      21.011869649266526
    ],
    "dataType": "OPERATOR",
    "category": "intermediary",
    "subcategory": "Operatorzy systemów"
  },
  {
    "id": "OPERATOR_49612_82",
    "name": "GLOSBE Sp. z o.o.",
    "address": "ul. Rabowicka 65",
    "postalCode": "62-020",
    "city": "Swarzędz -Jasin",
    "province": "wielkopolskie",
    "county": "poznański",
    "municipality": "Swarzędz",
    "installationType": "OSDe",
    "operatorTypeDesc": "Operator systemu dystrybucyjnego elektroenergetycznego",
    "registrationDate": "2022-12-06",
    "validFrom": "2023-01-01",
    "validTo": "2030-12-31",
    "regon": "302753533",
    "nip": "7811896867",
    "fileUrl": "",
    "operatingArea": "zamknięty system dystrybucyjny",
    "coordinates": [
      52.404648152319155,
      17.1076490718583
    ],
    "dataType": "OPERATOR",
    "category": "intermediary",
    "subcategory": "Operatorzy systemów"
  },
  {
    "id": "OPERATOR_49612_83",
    "name": "GLOSBE Sp. z o.o.",
    "address": "ul. Rabowicka 65",
    "postalCode": "62-020",
    "city": "Swarzędz -Jasin",
    "province": "wielkopolskie",
    "county": "poznański",
    "municipality": "Swarzędz",
    "installationType": "OSDe",
    "operatorTypeDesc": "Operator systemu dystrybucyjnego elektroenergetycznego",
    "registrationDate": "2019-08-22",
    "validFrom": "2019-09-01",
    "validTo": "2030-12-31",
    "regon": "302753533",
    "nip": "7811896867",
    "fileUrl": "https://api.ure.gov.pl/api/ConcessionFuel/download/D5579E22-F68C-4341-AB52-953C0167BACC",
    "operatingArea": "Zgodnie z koncesją nr DEE/384/49612/W/OPO/2018/AJ",
    "coordinates": [
      52.40397704732259,
      17.106756790007296
    ],
    "dataType": "OPERATOR",
    "category": "intermediary",
    "subcategory": "Operatorzy systemów"
  },
  {
    "id": "OPERATOR_26173_84",
    "name": "GMINA UNIEJÓW - ENERGETYKA UNIEJÓW",
    "address": "ul. Błogosławionego Bogumiła 13",
    "postalCode": "99-210",
    "city": "Uniejów",
    "province": "łódzkie",
    "county": "poddębicki",
    "municipality": "Uniejów",
    "installationType": "OSDe",
    "operatorTypeDesc": "Operator systemu dystrybucyjnego elektroenergetycznego",
    "registrationDate": "2016-04-05",
    "validFrom": "2016-06-01",
    "validTo": "2030-12-31",
    "regon": "362104963",
    "nip": "8281414015",
    "fileUrl": "https://api.ure.gov.pl/api/ConcessionFuel/download/D0B4EF33-C581-43D3-9A9C-A0B0459D1A0E",
    "operatingArea": "Zgodnie z koncesją nr DEE/358/26173/W/OŁO/2015/JGrz",
    "coordinates": [
      51.975053947680074,
      18.792893661113528
    ],
    "dataType": "OPERATOR",
    "category": "intermediary",
    "subcategory": "Operatorzy systemów"
  },
  {
    "id": "OPERATOR_66828_85",
    "name": "GONAR-BIS SP. Z O.O.",
    "address": "UL. OBROKI 109",
    "postalCode": "40-833",
    "city": "KATOWICE",
    "province": "śląskie",
    "county": "górnośląsko-zagłębiowska metropoliański",
    "municipality": "Katowice",
    "installationType": "OSDe",
    "operatorTypeDesc": "Operator systemu dystrybucyjnego elektroenergetycznego",
    "registrationDate": {
      "$": {
        "xsi:nil": "true"
      }
    },
    "validFrom": "2024-11-01",
    "validTo": "2044-06-01",
    "regon": "240529393",
    "nip": "6342620329",
    "fileUrl": "https://api.ure.gov.pl/api/ConcessionFuel/download/4AF93327-6C7E-4B7E-8061-8FDF61EC7653",
    "operatingArea": "Zgodnie z koncesją nr DEE/457/66828/W/OKA/2024/RZ",
    "coordinates": [
      50.264188937951886,
      19.023722836538273
    ],
    "dataType": "OPERATOR",
    "category": "intermediary",
    "subcategory": "Operatorzy systemów"
  },
  {
    "id": "OPERATOR_2109_86",
    "name": "Górażdże Cement S.A.",
    "address": "ul. Cementowa 1",
    "postalCode": "47-316",
    "city": "Chorula",
    "province": "opolskie",
    "county": "krapkowicki",
    "municipality": "Gogolin",
    "installationType": "OSDe",
    "operatorTypeDesc": "Operator systemu dystrybucyjnego elektroenergetycznego",
    "registrationDate": "2011-07-29",
    "validFrom": "2011-10-01",
    "validTo": "2030-12-31",
    "regon": "530515047",
    "nip": "7560003405",
    "fileUrl": "https://api.ure.gov.pl/api/ConcessionFuel/download/02150933-CE37-43CD-AAA4-D062F5EF75DC",
    "operatingArea": "Zgodnie z koncesją nr DEE/91/2109/W/OWR/2009/MB",
    "coordinates": [
      50.53190588909239,
      17.96643280848275
    ],
    "dataType": "OPERATOR",
    "category": "intermediary",
    "subcategory": "Operatorzy systemów"
  },
  {
    "id": "OPERATOR_23279_87",
    "name": "GREEN GEN ENERGY Sp. z o.o.",
    "address": "Aleja Armii Ludowej 26",
    "postalCode": "00-609",
    "city": "Warszawa",
    "province": "mazowieckie",
    "county": "warszawski",
    "municipality": "Warszawa",
    "installationType": "OSDe",
    "operatorTypeDesc": "Operator systemu dystrybucyjnego elektroenergetycznego",
    "registrationDate": "2017-02-01",
    "validFrom": "2017-03-01",
    "validTo": "2026-08-22",
    "regon": "140363300",
    "nip": "5213371786",
    "fileUrl": "https://api.ure.gov.pl/api/ConcessionFuel/download/B16CE987-9D04-4D5E-A7F7-C7DEA716D43D",
    "operatingArea": "Zgodnie z koncesją nr DEE/365/23279/W/DRE/2016/KCh",
    "coordinates": [
      52.2305516896958,
      21.012696460386184
    ],
    "dataType": "OPERATOR",
    "category": "intermediary",
    "subcategory": "Operatorzy systemów"
  },
  {
    "id": "OPERATOR_24520_88",
    "name": "Green Lights Dystrybucja Sp. z o.o.",
    "address": "ul. 1 Sierpnia 6 / Budynek D",
    "postalCode": "02-134",
    "city": "Warszawa",
    "province": "mazowieckie",
    "county": "warszawski",
    "municipality": "Warszawa",
    "installationType": "OSDe",
    "operatorTypeDesc": "Operator systemu dystrybucyjnego elektroenergetycznego",
    "registrationDate": "2016-02-19",
    "validFrom": "2016-04-01",
    "validTo": "2040-12-31",
    "regon": "360437241",
    "nip": "9512386556",
    "fileUrl": "https://api.ure.gov.pl/api/ConcessionFuel/download/79CDC57F-1AA3-41C5-BBAE-C491C2670853",
    "operatingArea": "Zgodnie z koncesją nr DEE/346/24520/W/OŁO/2015/KK",
    "coordinates": [
      52.23042835158692,
      21.01198649463109
    ],
    "dataType": "OPERATOR",
    "category": "intermediary",
    "subcategory": "Operatorzy systemów"
  },
  {
    "id": "OPERATOR_28061_89",
    "name": "Green Lights Obrót Sp. z o.o.",
    "address": "ul. 1 Sierpnia 6 bud. D",
    "postalCode": "02-134",
    "city": "Warszawa",
    "province": "mazowieckie",
    "county": "warszawski",
    "municipality": "Warszawa",
    "installationType": "OSDe",
    "operatorTypeDesc": "Operator systemu dystrybucyjnego elektroenergetycznego",
    "registrationDate": "2020-03-10",
    "validFrom": "2020-04-15",
    "validTo": "2030-12-31",
    "regon": "363805857",
    "nip": "9512407028",
    "fileUrl": "https://api.ure.gov.pl/api/ConcessionFuel/download/BEEBE0A4-A970-4A5B-9E58-D1148CE9C6C5",
    "operatingArea": "Zgodnie z koncesją nr DEE/396/28061/W/DRE/2019/ŁG",
    "coordinates": [
      52.22907514019025,
      21.011787040585652
    ],
    "dataType": "OPERATOR",
    "category": "intermediary",
    "subcategory": "Operatorzy systemów"
  },
  {
    "id": "OPERATOR_18710_90",
    "name": "Green Lights Spółka z ograniczoną odpowiedzialnością",
    "address": "ul. 1 Sierpnia 6",
    "postalCode": "02-134",
    "city": "Warszawa",
    "province": "mazowieckie",
    "county": "warszawski",
    "municipality": "Warszawa",
    "installationType": "OSDe",
    "operatorTypeDesc": "Operator systemu dystrybucyjnego elektroenergetycznego",
    "registrationDate": "2015-02-27",
    "validFrom": "2015-05-01",
    "validTo": "2030-12-31",
    "regon": "015537903",
    "nip": "5213256789",
    "fileUrl": "https://api.ure.gov.pl/api/ConcessionFuel/download/1E069E6C-3FA6-47E3-B8C8-B521243DE447",
    "operatingArea": "Zgodnie z koncesją nr DEE/327/18710/W/OLO/2014/KK",
    "coordinates": [
      52.230575312506154,
      21.01187121122652
    ],
    "dataType": "OPERATOR",
    "category": "intermediary",
    "subcategory": "Operatorzy systemów"
  },
  {
    "id": "OPERATOR_18872_91",
    "name": "Grupa Azoty Kopalnie i Zakłady Chemiczne Siarki \"Siarkopol\" Spółka Akcyjna",
    "address": "Grzybów 34",
    "postalCode": "28-200",
    "city": "Staszów",
    "province": "świętokrzyskie",
    "county": "staszowski",
    "municipality": "Kozienice",
    "installationType": "OSDe",
    "operatorTypeDesc": "Operator systemu dystrybucyjnego elektroenergetycznego",
    "registrationDate": "2014-08-05",
    "validFrom": "2015-01-01",
    "validTo": "2030-06-15",
    "regon": "830327684",
    "nip": "8660001369",
    "fileUrl": "https://api.ure.gov.pl/api/ConcessionFuel/download/9154EBAB-319A-477E-B0C6-E0F0CA14B677",
    "operatingArea": "Zgodnie z koncesją nr DEE/248/18872/W/OŁO/2010/WL",
    "coordinates": [
      50.86676718615335,
      20.63214663846314
    ],
    "dataType": "OPERATOR",
    "category": "intermediary",
    "subcategory": "Operatorzy systemów"
  },
  {
    "id": "OPERATOR_711_92",
    "name": "Grupa Azoty Spółka Akcyjna",
    "address": "ul. Kwiatkowskiego 8",
    "postalCode": "33-101",
    "city": "Tarnów",
    "province": "małopolskie",
    "county": "tarnowski",
    "municipality": "Tarnów",
    "installationType": "OSDe",
    "operatorTypeDesc": "Operator systemu dystrybucyjnego elektroenergetycznego",
    "registrationDate": "2011-01-05",
    "validFrom": "2011-02-01",
    "validTo": "2025-12-15",
    "regon": "850002268",
    "nip": "8730006829",
    "fileUrl": "https://api.ure.gov.pl/api/ConcessionFuel/download/6924118A-2FA3-4C44-B714-34D82932213C",
    "operatingArea": "Zgodnie z koncesją nr PEE/65/711/U/OT-7/98/MK",
    "coordinates": [
      50.01324414848234,
      20.98865535189453
    ],
    "dataType": "OPERATOR",
    "category": "intermediary",
    "subcategory": "Operatorzy systemów"
  },
  {
    "id": "OPERATOR_590_93",
    "name": "Grupa Azoty Zakłady Azotowe \"PUŁAWY\" Spółka Akcyjna",
    "address": "Al. 1000-lecia Państwa Polskiego 13",
    "postalCode": "24-110",
    "city": "Puławy",
    "province": "lubelskie",
    "county": "puławski",
    "municipality": "Góra Kalwaria",
    "installationType": "OSDe",
    "operatorTypeDesc": "Operator systemu dystrybucyjnego elektroenergetycznego",
    "registrationDate": "2012-08-22",
    "validFrom": "2012-10-01",
    "validTo": "2028-11-30",
    "regon": "430528900",
    "nip": "7160001822",
    "fileUrl": "https://api.ure.gov.pl/api/ConcessionFuel/download/5E6EA489-6B16-4B00-B9C9-C82B9F631783",
    "operatingArea": "Zgodnie z koncesją nr PEE/2/590/U/3/98/JB",
    "coordinates": [
      51.41686860504794,
      21.9728204686515
    ],
    "dataType": "OPERATOR",
    "category": "intermediary",
    "subcategory": "Operatorzy systemów"
  },
  {
    "id": "OPERATOR_3888_94",
    "name": "Grupa Azoty Zakłady Azotowe Chorzów S.A.",
    "address": "ul. Narutowicza 15",
    "postalCode": "41-503",
    "city": "Chorzów",
    "province": "śląskie",
    "county": "katowicki",
    "municipality": "Chorzów",
    "installationType": "OSDe",
    "operatorTypeDesc": "Operator systemu dystrybucyjnego elektroenergetycznego",
    "registrationDate": "2012-08-02",
    "validFrom": "2012-08-02",
    "validTo": "2030-12-31",
    "regon": "271515599",
    "nip": "6270011643",
    "fileUrl": "https://api.ure.gov.pl/api/ConcessionFuel/download/44153EC0-503C-4A1B-8B78-5E6C82C5D765",
    "operatingArea": "Zgodnie z koncesją nr DEE/299/3888/W/2/2012/ŁG",
    "coordinates": [
      50.28781611297556,
      18.971331131254853
    ],
    "dataType": "OPERATOR",
    "category": "intermediary",
    "subcategory": "Operatorzy systemów"
  },
  {
    "id": "OPERATOR_564_95",
    "name": "Grupa Azoty Zakłady Azotowe Kędzierzyn Spółka Akcyjna",
    "address": "ul. Mostowa 30A / s. p. 163",
    "postalCode": "47-220",
    "city": "Kędzierzyn-Koźle",
    "province": "opolskie",
    "county": "kędzierzyńsko-kozielski",
    "municipality": "Kędzierzyn-Koźle",
    "installationType": "OSDe",
    "operatorTypeDesc": "Operator systemu dystrybucyjnego elektroenergetycznego",
    "registrationDate": "2010-04-01",
    "validFrom": "2010-04-01",
    "validTo": "2025-12-31",
    "regon": "530544497",
    "nip": "7490005094",
    "fileUrl": "https://api.ure.gov.pl/api/ConcessionFuel/download/217DC819-3955-40E8-9CB0-CC40B8ECA27C",
    "operatingArea": "Zgodnie z koncesją nr PEE/83/564/U/OT-6/98/MB",
    "coordinates": [
      50.34471552911364,
      18.244732546507798
    ],
    "dataType": "OPERATOR",
    "category": "intermediary",
    "subcategory": "Operatorzy systemów"
  },
  {
    "id": "OPERATOR_580_96",
    "name": "Grupa Azoty Zakłady Chemiczne POLICE S.A.",
    "address": "ul. Kuźnicka 1",
    "postalCode": "72-010",
    "city": "Police",
    "province": "zachodniopomorskie",
    "county": "policki",
    "municipality": "Warszawa",
    "installationType": "OSDe",
    "operatorTypeDesc": "Operator systemu dystrybucyjnego elektroenergetycznego",
    "registrationDate": "2024-09-02",
    "validFrom": "2024-10-01",
    "validTo": "2025-12-31",
    "regon": "810822270",
    "nip": "8510205573",
    "fileUrl": "",
    "operatingArea": "zamknięty system dystrybucyjny na ograniczonym geograficznie obszarze zakładu przemysłowego Grupy Azoty Zakłady Chemiczne „Police” S.A. z siedzibą w Policach, zlokalizowanego w Policach przy ulicy Kuźnickiej 1",
    "coordinates": [
      53.548629530686604,
      14.565912246326203
    ],
    "dataType": "OPERATOR",
    "category": "intermediary",
    "subcategory": "Operatorzy systemów"
  },
  {
    "id": "OPERATOR_580_97",
    "name": "Grupa Azoty Zakłady Chemiczne POLICE S.A.",
    "address": "ul. Kuźnicka 1",
    "postalCode": "72-010",
    "city": "Police",
    "province": "zachodniopomorskie",
    "county": "policki",
    "municipality": "Warszawa",
    "installationType": "OSDe",
    "operatorTypeDesc": "Operator systemu dystrybucyjnego elektroenergetycznego",
    "registrationDate": "2011-03-22",
    "validFrom": "2011-05-01",
    "validTo": "2025-12-31",
    "regon": "810822270",
    "nip": "8510205573",
    "fileUrl": "https://api.ure.gov.pl/api/ConcessionFuel/download/5FCA7B8A-4FFE-46E1-9102-BAE4E3236DD7",
    "operatingArea": "Zgodnie z koncesją nr PEE/155/580/U/1/2/99/RG",
    "coordinates": [
      53.54873499184815,
      14.566356214609348
    ],
    "dataType": "OPERATOR",
    "category": "intermediary",
    "subcategory": "Operatorzy systemów"
  },
  {
    "id": "OPERATOR_18974_98",
    "name": "Grupa Energia GE Spółka z ograniczoną odpowiedzialnością",
    "address": "Al. Armii Ludowej 28",
    "postalCode": "00-609",
    "city": "Warszawa",
    "province": "mazowieckie",
    "county": "warszawski",
    "municipality": "Warszawa",
    "installationType": "OSDe",
    "operatorTypeDesc": "Operator systemu dystrybucyjnego elektroenergetycznego",
    "registrationDate": "2013-02-14",
    "validFrom": "2013-04-01",
    "validTo": "2030-12-31",
    "regon": "142128388",
    "nip": "5272617504",
    "fileUrl": "https://api.ure.gov.pl/api/ConcessionFuel/download/113947F2-6DAA-40AF-BFBE-CD9C93863ED6",
    "operatingArea": "Zgodnie z koncesją nr DEE/283/18974/W/2/2010/UA",
    "coordinates": [
      52.23020904659279,
      21.01164646831003
    ],
    "dataType": "OPERATOR",
    "category": "intermediary",
    "subcategory": "Operatorzy systemów"
  },
  {
    "id": "OPERATOR_70665_99",
    "name": "Grupa Energia Nova GE sp. z o.o. sp.k.",
    "address": "ul. Warszawska 40 / 2 A",
    "postalCode": "40-008",
    "city": "Katowice",
    "province": "śląskie",
    "county": "katowicki",
    "municipality": "Katowice",
    "installationType": "OSDe",
    "operatorTypeDesc": "Operator systemu dystrybucyjnego elektroenergetycznego",
    "registrationDate": "2023-07-11",
    "validFrom": "2023-08-01",
    "validTo": "2033-04-03",
    "regon": "384452523",
    "nip": "9542808068",
    "fileUrl": "https://api.ure.gov.pl/api/ConcessionFuel/download/041C3753-404F-49EF-A4E9-F5EEADDF8BB5",
    "operatingArea": "Zgodnie z koncesją nr DEE/445/70665/W/OKA/2023/PCR",
    "coordinates": [
      50.26442629172484,
      19.024719309748185
    ],
    "dataType": "OPERATOR",
    "category": "intermediary",
    "subcategory": "Operatorzy systemów"
  },
  {
    "id": "OPERATOR_18884_100",
    "name": "Grupa Energia Obrót GE Spółka z ograniczoną odpowiedzialnością",
    "address": "Al. Armii Ludowej 28",
    "postalCode": "00-609",
    "city": "Warszawa",
    "province": "mazowieckie",
    "county": "warszawski",
    "municipality": "Warszawa",
    "installationType": "OSDe",
    "operatorTypeDesc": "Operator systemu dystrybucyjnego elektroenergetycznego",
    "registrationDate": "2013-06-04",
    "validFrom": "2013-09-01",
    "validTo": "2030-12-31",
    "regon": "142154530",
    "nip": "5272617496",
    "fileUrl": "https://api.ure.gov.pl/api/ConcessionFuel/download/351C0E44-AC50-4072-8A81-40E00607A5E8",
    "operatingArea": "Zgodnie z koncesją nr DEE/279/18884/W/2/2010/UA",
    "coordinates": [
      52.23021837227484,
      21.01134896364523
    ],
    "dataType": "OPERATOR",
    "category": "intermediary",
    "subcategory": "Operatorzy systemów"
  },
  {
    "id": "OPERATOR_693_101",
    "name": "Grupa Kęty Spółka Akcyjna",
    "address": "ul. Kościuszki 111",
    "postalCode": "32-650",
    "city": "Kęty",
    "province": "małopolskie",
    "county": "oświęcimski",
    "municipality": "Góra Kalwaria",
    "installationType": "OSDe",
    "operatorTypeDesc": "Operator systemu dystrybucyjnego elektroenergetycznego",
    "registrationDate": "2011-06-08",
    "validFrom": "2011-09-01",
    "validTo": "2030-12-31",
    "regon": "070614970",
    "nip": "5490001468",
    "fileUrl": "https://api.ure.gov.pl/api/ConcessionFuel/download/ED52F9CC-FE72-40C9-A042-6FE8BE687D39",
    "operatingArea": "Zgodnie z koncesją nr DEE/233/693/W/OKR/2009/RW",
    "coordinates": [
      49.883815142933585,
      19.22312233829533
    ],
    "dataType": "OPERATOR",
    "category": "intermediary",
    "subcategory": "Operatorzy systemów"
  },
  {
    "id": "OPERATOR_340_102",
    "name": "H. Cegielski - ENERGOCENTRUM Sp. z o.o.",
    "address": "ul. 28 Czerwca 1956 r. 223 / 229",
    "postalCode": "60-965",
    "city": "Poznań",
    "province": "wielkopolskie",
    "county": "poznański",
    "municipality": "Poznań",
    "installationType": "OSDe",
    "operatorTypeDesc": "Operator systemu dystrybucyjnego elektroenergetycznego",
    "registrationDate": "2011-12-13",
    "validFrom": "2012-02-01",
    "validTo": "2025-12-31",
    "regon": "630719278",
    "nip": "7831134221",
    "fileUrl": "https://api.ure.gov.pl/api/ConcessionFuel/download/D711FE4A-02EE-4A30-AD71-3C11F27C9139",
    "operatingArea": "Zgodnie z koncesją nr DEE/79/340/W/2/2008/PJ",
    "coordinates": [
      52.407076818829836,
      16.924969397186487
    ],
    "dataType": "OPERATOR",
    "category": "intermediary",
    "subcategory": "Operatorzy systemów"
  },
  {
    "id": "OPERATOR_1727_103",
    "name": "Huta Bankowa Sp. z o.o.",
    "address": "Sobieskiego 24",
    "postalCode": "41-300",
    "city": "Dąbrowa Górnicza",
    "province": "śląskie",
    "county": "zawierciański",
    "municipality": "Dąbrowa Górnicza",
    "installationType": "OSDe",
    "operatorTypeDesc": "Operator systemu dystrybucyjnego elektroenergetycznego",
    "registrationDate": "2012-02-03",
    "validFrom": "2012-04-01",
    "validTo": "2030-02-01",
    "regon": "273155484",
    "nip": "6291328871",
    "fileUrl": "https://api.ure.gov.pl/api/ConcessionFuel/download/DA377B56-77AF-42AA-AE67-54880114AE0D",
    "operatingArea": "Zgodnie z koncesją nr DEE/231/1727/W/OKA/2009/PS",
    "coordinates": [
      50.33094771708923,
      19.207079095766606
    ],
    "dataType": "OPERATOR",
    "category": "intermediary",
    "subcategory": "Operatorzy systemów"
  },
  {
    "id": "OPERATOR_71879_104",
    "name": "Industria Dystrybucja sp. z o.o.",
    "address": "ul. Na Ługach 7",
    "postalCode": "25-803",
    "city": "Kielce",
    "province": "świętokrzyskie",
    "county": "kielecki",
    "municipality": "Kielce",
    "installationType": "OSDe",
    "operatorTypeDesc": "Operator systemu dystrybucyjnego elektroenergetycznego",
    "registrationDate": "2024-09-02",
    "validFrom": "2024-10-01",
    "validTo": "2044-06-24",
    "regon": "524582870",
    "nip": "9592060005",
    "fileUrl": "https://api.ure.gov.pl/api/ConcessionFuel/download/BFE0E756-7D50-4E61-A0B3-FC2CACCA4112",
    "operatingArea": "Zgodnie z koncesją nr DEE/459/71879/W/OKA/2024/PPu",
    "coordinates": [
      50.86682810632822,
      20.62897514654222
    ],
    "dataType": "OPERATOR",
    "category": "intermediary",
    "subcategory": "Operatorzy systemów"
  },
  {
    "id": "OPERATOR_1197_105",
    "name": "JSW Koks Spółka Akcyjna",
    "address": "ul. Pawliczka 1",
    "postalCode": "41-800",
    "city": "Zabrze",
    "province": "śląskie",
    "county": "zabrzański",
    "municipality": "Zabrze",
    "installationType": "OSDe",
    "operatorTypeDesc": "Operator systemu dystrybucyjnego elektroenergetycznego",
    "registrationDate": "2022-12-22",
    "validFrom": "2023-01-01",
    "validTo": "2030-12-31",
    "regon": "278093210",
    "nip": "6292256576",
    "fileUrl": "",
    "operatingArea": "zamknięty system dystrybucyjny",
    "coordinates": [
      50.324046029219666,
      18.786794563366893
    ],
    "dataType": "OPERATOR",
    "category": "intermediary",
    "subcategory": "Operatorzy systemów"
  },
  {
    "id": "OPERATOR_1197_106",
    "name": "JSW Koks Spółka Akcyjna",
    "address": "ul. Pawliczka 1",
    "postalCode": "41-800",
    "city": "Zabrze",
    "province": "śląskie",
    "county": "zabrzański",
    "municipality": "Zabrze",
    "installationType": "OSDe",
    "operatorTypeDesc": "Operator systemu dystrybucyjnego elektroenergetycznego",
    "registrationDate": "2010-12-20",
    "validFrom": "2011-01-01",
    "validTo": "2030-12-31",
    "regon": "278093210",
    "nip": "6292256576",
    "fileUrl": "https://api.ure.gov.pl/api/ConcessionFuel/download/A6A7F25C-6E03-4403-A24C-0AA04411A2FC",
    "operatingArea": "Zgodnie z koncesją nr PEE/136/1197/U/1/2/99/AS",
    "coordinates": [
      50.32580504184779,
      18.786401790764817
    ],
    "dataType": "OPERATOR",
    "category": "intermediary",
    "subcategory": "Operatorzy systemów"
  },
  {
    "id": "OPERATOR_575_107",
    "name": "Katarzyna Droga, Tomasz Motyl Przedsiębiorstwo Produkcyjno-Handlowo-Usługowe \"ADM\" s.c.",
    "address": "ul. Przemysłowa 7",
    "postalCode": "63-500",
    "city": "Ostrzeszów",
    "province": "wielkopolskie",
    "county": "ostrzeszowski",
    "municipality": "Ostrzeszów",
    "installationType": "OSDe",
    "operatorTypeDesc": "Operator systemu dystrybucyjnego elektroenergetycznego",
    "registrationDate": "2011-10-21",
    "validFrom": "2012-01-01",
    "validTo": "2028-12-31",
    "regon": "250442276",
    "nip": "6221000533",
    "fileUrl": "https://api.ure.gov.pl/api/ConcessionFuel/download/2CC51365-5612-41E5-85D8-2CE033FE617C",
    "operatingArea": "Zgodnie z koncesją nr PEE/98/575/U/1/98/AS",
    "coordinates": [
      51.42490809733583,
      17.93390514994883
    ],
    "dataType": "OPERATOR",
    "category": "intermediary",
    "subcategory": "Operatorzy systemów"
  },
  {
    "id": "OPERATOR_2678_108",
    "name": "KGHM Polska Miedź S.A.",
    "address": "ul. M. Skłodowskiej - Curie 48",
    "postalCode": "59-301",
    "city": "Lubin",
    "province": "dolnośląskie",
    "county": "lubiński",
    "municipality": "Lubin",
    "installationType": "OSDe",
    "operatorTypeDesc": "Operator systemu dystrybucyjnego elektroenergetycznego",
    "registrationDate": "2010-12-30",
    "validFrom": "2011-02-01",
    "validTo": "2025-10-31",
    "regon": "390021764",
    "nip": "6920000013",
    "fileUrl": "https://api.ure.gov.pl/api/ConcessionFuel/download/013EF053-5ECE-4B99-830B-A07ED236CBE7",
    "operatingArea": "Zgodnie z koncesją nr PEE/5/2678/U/3/98/RW",
    "coordinates": [
      51.39881233236575,
      16.19852785825645
    ],
    "dataType": "OPERATOR",
    "category": "intermediary",
    "subcategory": "Operatorzy systemów"
  },
  {
    "id": "OPERATOR_22807_109",
    "name": "Kogeneracja Szamotuły S.A.",
    "address": "ul. Czartoria 1 / 27",
    "postalCode": "61-102",
    "city": "Poznań",
    "province": "wielkopolskie",
    "county": "poznański",
    "municipality": "Poznań",
    "installationType": "OSDe",
    "operatorTypeDesc": "Operator systemu dystrybucyjnego elektroenergetycznego",
    "registrationDate": "2020-11-30",
    "validFrom": "2021-01-01",
    "validTo": "2029-11-14",
    "regon": "301936237",
    "nip": "7831682193",
    "fileUrl": "https://api.ure.gov.pl/api/ConcessionFuel/download/9B966715-781F-4707-A3B7-6BD91DBF0F80",
    "operatingArea": "Zgodnie z koncesją nr DEE/402/22807/W/OPO/2019/MKr1",
    "coordinates": [
      52.40710833436982,
      16.924985271685784
    ],
    "dataType": "OPERATOR",
    "category": "intermediary",
    "subcategory": "Operatorzy systemów"
  },
  {
    "id": "OPERATOR_812_110",
    "name": "Korporacja Budowlana FADOM S.A.",
    "address": "ul. Boczna 6/202",
    "postalCode": "44-240",
    "city": "Żory",
    "province": "śląskie",
    "county": "żywiecki",
    "municipality": "Żory",
    "installationType": "OSDe",
    "operatorTypeDesc": "Operator systemu dystrybucyjnego elektroenergetycznego",
    "registrationDate": "2011-09-14",
    "validFrom": "2011-11-01",
    "validTo": "2030-12-31",
    "regon": "271514246",
    "nip": "6510003555",
    "fileUrl": "https://api.ure.gov.pl/api/ConcessionFuel/download/3CA2F4D4-7986-426D-A9E4-83B245103879",
    "operatingArea": "Zgodnie z koncesją nr PEE/121/812/U/OKA/99/BK/1/2/AS",
    "coordinates": [
      50.044616389546206,
      18.69471544600178
    ],
    "dataType": "OPERATOR",
    "category": "intermediary",
    "subcategory": "Operatorzy systemów"
  },
  {
    "id": "OPERATOR_613_111",
    "name": "LERG S.A.",
    "address": "Pustków - Osiedle 59D",
    "postalCode": "39-206",
    "city": "Pustków",
    "province": "podkarpackie",
    "county": "dębicki",
    "municipality": "Dębica",
    "installationType": "OSDe",
    "operatorTypeDesc": "Operator systemu dystrybucyjnego elektroenergetycznego",
    "registrationDate": "2023-09-06",
    "validFrom": "2023-10-01",
    "validTo": "2030-12-31",
    "regon": "850022800",
    "nip": "8720003568",
    "fileUrl": "",
    "operatingArea": "zamknięty system dystrybucyjny na ograniczonym geograficznie obszarze zakładu przemysłowego zlokalizowanego w miejscowości Pustków-Osiedle 59D, 39-206 Pustków",
    "coordinates": [
      50.142821907334366,
      21.489849842994396
    ],
    "dataType": "OPERATOR",
    "category": "intermediary",
    "subcategory": "Operatorzy systemów"
  },
  {
    "id": "OPERATOR_613_112",
    "name": "LERG S.A.",
    "address": "Pustków - Osiedle 59D",
    "postalCode": "39-206",
    "city": "Pustków",
    "province": "podkarpackie",
    "county": "dębicki",
    "municipality": "Dębica",
    "installationType": "OSDe",
    "operatorTypeDesc": "Operator systemu dystrybucyjnego elektroenergetycznego",
    "registrationDate": "2011-12-12",
    "validFrom": "2012-02-01",
    "validTo": "2030-12-31",
    "regon": "850022800",
    "nip": "8720003568",
    "fileUrl": "https://api.ure.gov.pl/api/ConcessionFuel/download/E24CEE69-6884-4169-B7BF-DC51E4FC75D2",
    "operatingArea": "Zgodnie z koncesją nr DEE/345/613/W/OKR/2015/WK",
    "coordinates": [
      50.14257996130688,
      21.489967364703325
    ],
    "dataType": "OPERATOR",
    "category": "intermediary",
    "subcategory": "Operatorzy systemów"
  },
  {
    "id": "OPERATOR_19654_113",
    "name": "Lewandpol ProEnergia Sp. z o.o.",
    "address": "ul. Otolińska 8",
    "postalCode": "09-407",
    "city": "Płock",
    "province": "mazowieckie",
    "county": "płocki",
    "municipality": "Płock",
    "installationType": "OSDe",
    "operatorTypeDesc": "Operator systemu dystrybucyjnego elektroenergetycznego",
    "registrationDate": "2012-02-21",
    "validFrom": "2012-04-01",
    "validTo": "2030-12-31",
    "regon": "142181477",
    "nip": "7743139762",
    "fileUrl": "https://api.ure.gov.pl/api/ConcessionFuel/download/E4E69B92-FAA9-4EF0-B617-54674C552466",
    "operatingArea": "Zgodnie z koncesją nr DEE/244/19654/W/OWA/2010/IRŚ",
    "coordinates": [
      52.547053425404876,
      19.70723209319797
    ],
    "dataType": "OPERATOR",
    "category": "intermediary",
    "subcategory": "Operatorzy systemów"
  },
  {
    "id": "OPERATOR_49578_114",
    "name": "MA Polska S.A.",
    "address": "ul. Turyńska 100",
    "postalCode": "43-100",
    "city": "Tychy",
    "province": "śląskie",
    "county": "tyski",
    "municipality": "Tychy",
    "installationType": "OSDe",
    "operatorTypeDesc": "Operator systemu dystrybucyjnego elektroenergetycznego",
    "registrationDate": "2021-07-15",
    "validFrom": "2021-07-20",
    "validTo": "2036-05-05",
    "regon": "273823276",
    "nip": "6462336513",
    "fileUrl": "https://api.ure.gov.pl/api/ConcessionFuel/download/FF5BB6E6-3D85-43B8-A84B-EF0A445A1037",
    "operatingArea": "Zgodnie z koncesją nr DEE/417/69145/W/OKA/2021/ESt1",
    "coordinates": [
      50.135595338325516,
      19.01245965118848
    ],
    "dataType": "OPERATOR",
    "category": "intermediary",
    "subcategory": "Operatorzy systemów"
  },
  {
    "id": "OPERATOR_70563_115",
    "name": "MAINTENANCE+ SPÓŁKA Z OGRANICZONĄ ODPOWIEDZIALNOŚCIĄ",
    "address": "ul. STEFANA BATOREGO 16 / 1A",
    "postalCode": "80-251",
    "city": "Gdańsk",
    "province": "pomorskie",
    "county": "gdański",
    "municipality": "Gdańsk",
    "installationType": "OSDe",
    "operatorTypeDesc": "Operator systemu dystrybucyjnego elektroenergetycznego",
    "registrationDate": "2025-03-27",
    "validFrom": "2025-05-01",
    "validTo": "2035-01-01",
    "regon": "361432493",
    "nip": "9571078359",
    "fileUrl": "https://api.ure.gov.pl/api/ConcessionFuel/download/395D355B-A43F-474F-9DDE-9A5989EE60D8",
    "operatingArea": "Zgodnie z koncesją nr DEE/462/70563/W/OGD/2025/MZd",
    "coordinates": [
      54.352525114297045,
      18.646655222457515
    ],
    "dataType": "OPERATOR",
    "category": "intermediary",
    "subcategory": "Operatorzy systemów"
  },
  {
    "id": "OPERATOR_70576_116",
    "name": "Mashav Management Spółka z ograniczoną odpowiedzialnością",
    "address": "ul. Zielna 37 Bud. C / XII piętro",
    "postalCode": "00-108",
    "city": "Warszawa",
    "province": "mazowieckie",
    "county": "warszawski",
    "municipality": "Warszawa",
    "installationType": "OSDe",
    "operatorTypeDesc": "Operator systemu dystrybucyjnego elektroenergetycznego",
    "registrationDate": "2025-03-26",
    "validFrom": "2025-04-01",
    "validTo": "2045-04-01",
    "regon": "101741327",
    "nip": "1050002125",
    "fileUrl": "https://api.ure.gov.pl/api/ConcessionFuel/download/170541E7-72F1-4383-A738-ECE328B83D48",
    "operatingArea": "Zgodnie z koncesją nr DEE/464/70576/W/OŁO/2025/MWi",
    "coordinates": [
      52.230109535519574,
      21.01205326450495
    ],
    "dataType": "OPERATOR",
    "category": "intermediary",
    "subcategory": "Operatorzy systemów"
  },
  {
    "id": "OPERATOR_24651_117",
    "name": "Mera Operator Spółka z ograniczoną odpowiedzialnością",
    "address": "ul. Krotoszyńska 35",
    "postalCode": "63-400",
    "city": "Ostrów Wielkopolski",
    "province": "wielkopolskie",
    "county": "kaliski",
    "municipality": "Ostrów Wielkopolski",
    "installationType": "OSDe",
    "operatorTypeDesc": "Operator systemu dystrybucyjnego elektroenergetycznego",
    "registrationDate": "2015-05-15",
    "validFrom": "2015-06-01",
    "validTo": "2030-12-31",
    "regon": "302858976",
    "nip": "6222787015",
    "fileUrl": "https://api.ure.gov.pl/api/ConcessionFuel/download/5F539895-EAA8-44A2-A275-FB59C5331930",
    "operatingArea": "Zgodnie z koncesją nr DEE/351/24651/W/DRE/2015/ZJ",
    "coordinates": [
      51.64904366987734,
      17.816172804785467
    ],
    "dataType": "OPERATOR",
    "category": "intermediary",
    "subcategory": "Operatorzy systemów"
  },
  {
    "id": "OPERATOR_71204_118",
    "name": "Mirowski „KAMIR” Spółka Jawna",
    "address": "ul. A.Puszkina 80",
    "postalCode": "92-516",
    "city": "Łódź",
    "province": "łódzkie",
    "county": "łódzki",
    "municipality": "Łódź",
    "installationType": "OSDe",
    "operatorTypeDesc": "Operator systemu dystrybucyjnego elektroenergetycznego",
    "registrationDate": "2025-06-06",
    "validFrom": "2025-07-01",
    "validTo": "2040-12-31",
    "regon": "101430768",
    "nip": "7282790145",
    "fileUrl": "https://api.ure.gov.pl/api/ConcessionFuel/download/F0D777BF-4CDF-46E8-B6AF-A4E2848FCE30",
    "operatingArea": "Zgodnie z koncesją nr DEE/463/71204/W/OŁO/2025/MGG",
    "coordinates": [
      51.76009596738054,
      19.4558567278569
    ],
    "dataType": "OPERATOR",
    "category": "intermediary",
    "subcategory": "Operatorzy systemów"
  },
  {
    "id": "OPERATOR_740_119",
    "name": "Mondi Świecie Spółka z ograniczoną odpowiedzialnością",
    "address": "ul. Bydgoska 1",
    "postalCode": "86-100",
    "city": "Świecie",
    "province": "kujawsko-pomorskie",
    "county": "świecki",
    "municipality": "Warszawa",
    "installationType": "OSDe",
    "operatorTypeDesc": "Operator systemu dystrybucyjnego elektroenergetycznego",
    "registrationDate": "2012-05-24",
    "validFrom": "2012-08-01",
    "validTo": "2028-12-15",
    "regon": "002527817",
    "nip": "5590000505",
    "fileUrl": "https://api.ure.gov.pl/api/ConcessionFuel/download/4D8DF3B1-EA9E-404F-AE0C-69E4B76C3A70",
    "operatingArea": "Zgodnie z koncesją nr PEE/267/740/W/1/2003/MS",
    "coordinates": [
      53.4079445452145,
      18.445046123437667
    ],
    "dataType": "OPERATOR",
    "category": "intermediary",
    "subcategory": "Operatorzy systemów"
  },
  {
    "id": "OPERATOR_41718_120",
    "name": "Neo Dystrybucja sp. z o.o.",
    "address": "ul. Daszyńskiego 54a",
    "postalCode": "59-900",
    "city": "Zgorzelec",
    "province": "dolnośląskie",
    "county": "zgorzelecki",
    "municipality": "Zgorzelec",
    "installationType": "OSDe",
    "operatorTypeDesc": "Operator systemu dystrybucyjnego elektroenergetycznego",
    "registrationDate": "2019-11-29",
    "validFrom": "2019-12-15",
    "validTo": "2030-12-31",
    "regon": "362056767",
    "nip": "6152047097",
    "fileUrl": "https://api.ure.gov.pl/api/ConcessionFuel/download/DDDAB757-9AF0-443C-8618-38ADE8410309",
    "operatingArea": "Zgodnie z koncesją nr DEE/381/41718/W/OWR/2018/JR",
    "coordinates": [
      51.146995937566075,
      15.007147997748392
    ],
    "dataType": "OPERATOR",
    "category": "intermediary",
    "subcategory": "Operatorzy systemów"
  },
  {
    "id": "OPERATOR_69140_121",
    "name": "Nowa Energia Dystrybucja Sp. z o.o.",
    "address": "ul. Świętojańska 43 / 23",
    "postalCode": "81-391",
    "city": "Gdynia",
    "province": "pomorskie",
    "county": "gdyński",
    "municipality": "Gdynia",
    "installationType": "OSDe",
    "operatorTypeDesc": "Operator systemu dystrybucyjnego elektroenergetycznego",
    "registrationDate": "2022-03-01",
    "validFrom": "2022-04-01",
    "validTo": "2032-01-01",
    "regon": "360549359",
    "nip": "5851470205",
    "fileUrl": "https://api.ure.gov.pl/api/ConcessionFuel/download/BF2AB3A1-C1D0-4A7F-976B-82A86F3B9079",
    "operatingArea": "Zgodnie z koncesją nr DEE/424/69140/W/DRE/2021/POw",
    "coordinates": [
      54.51828828142813,
      18.529519491412
    ],
    "dataType": "OPERATOR",
    "category": "intermediary",
    "subcategory": "Operatorzy systemów"
  },
  {
    "id": "OPERATOR_1344_122",
    "name": "NSK Bearings Polska S.A.",
    "address": "ul. Jagiellońska 109",
    "postalCode": "25-734",
    "city": "Kielce",
    "province": "świętokrzyskie",
    "county": "kielecki",
    "municipality": "Kielce",
    "installationType": "OSDe",
    "operatorTypeDesc": "Operator systemu dystrybucyjnego elektroenergetycznego",
    "registrationDate": "2012-05-28",
    "validFrom": "2012-09-01",
    "validTo": "2025-12-31",
    "regon": "290008643",
    "nip": "6570311220",
    "fileUrl": "https://api.ure.gov.pl/api/ConcessionFuel/download/B3D039DB-85DC-4927-AF9F-756BC326666B",
    "operatingArea": "Zgodnie z koncesją nr PEE/34/1344/U/1/98/MJ",
    "coordinates": [
      50.86683671622038,
      20.628561105947718
    ],
    "dataType": "OPERATOR",
    "category": "intermediary",
    "subcategory": "Operatorzy systemów"
  },
  {
    "id": "OPERATOR_22078_123",
    "name": "Orion Engineered Carbons Sp. z o.o.",
    "address": "ul. 3 Maja 83",
    "postalCode": "38-200",
    "city": "Jasło",
    "province": "podkarpackie",
    "county": "jasielski",
    "municipality": "Jasło",
    "installationType": "OSDe",
    "operatorTypeDesc": "Operator systemu dystrybucyjnego elektroenergetycznego",
    "registrationDate": "2013-08-13",
    "validFrom": "2013-10-01",
    "validTo": "2033-02-25",
    "regon": "143185230",
    "nip": "5272659684",
    "fileUrl": "https://api.ure.gov.pl/api/ConcessionFuel/download/F0CA0CC6-F9DC-4AD1-89F6-AC4F74CCB487",
    "operatingArea": "Zgodnie z koncesją nr DEE/313/22078/W/OKR/2013/JI",
    "coordinates": [
      49.74678407876039,
      21.493328631969067
    ],
    "dataType": "OPERATOR",
    "category": "intermediary",
    "subcategory": "Operatorzy systemów"
  },
  {
    "id": "OPERATOR_203_124",
    "name": "Ostrowski Zakład Ciepłowniczy Spółka Akcyjna",
    "address": "ul. Wysocka 57",
    "postalCode": "63-400",
    "city": "Ostrów Wielkopolski",
    "province": "wielkopolskie",
    "county": "kaliski",
    "municipality": "Ostrów Wielkopolski",
    "installationType": "OSDe",
    "operatorTypeDesc": "Operator systemu dystrybucyjnego elektroenergetycznego",
    "registrationDate": "2011-01-28",
    "validFrom": "2011-04-01",
    "validTo": "2040-12-31",
    "regon": "250017863",
    "nip": "6220005712",
    "fileUrl": "https://api.ure.gov.pl/api/ConcessionFuel/download/75D4522C-F1F6-49B6-B906-FF3E53962B14",
    "operatingArea": "Zgodnie z koncesją nr DEE/66/203/W/OPO/2008/AJ",
    "coordinates": [
      51.65006923929658,
      17.81681413573331
    ],
    "dataType": "OPERATOR",
    "category": "intermediary",
    "subcategory": "Operatorzy systemów"
  },
  {
    "id": "OPERATOR_70573_125",
    "name": "PAD RES DYSTRYBUCJA ZACHÓD SPÓŁKA Z OGRANICZONĄ ODPOWIEDZIALNOŚCIĄ",
    "address": "Łokietka 5 / 2",
    "postalCode": "70-254",
    "city": "Szczecin",
    "province": "zachodniopomorskie",
    "county": "szczeciński",
    "municipality": "Szczecin",
    "installationType": "OSDe",
    "operatorTypeDesc": "Operator systemu dystrybucyjnego elektroenergetycznego",
    "registrationDate": "2025-02-27",
    "validFrom": "2025-04-01",
    "validTo": "2033-03-02",
    "regon": "141731674",
    "nip": "5222910797",
    "fileUrl": "https://api.ure.gov.pl/api/ConcessionFuel/download/8334BFC4-8F40-4912-A985-D1603061C5FE",
    "operatingArea": "Zgodnie z koncesją nr DEE/443/70573/W/OSZ/2023/APo1",
    "coordinates": [
      53.42890959368852,
      14.552657426107482
    ],
    "dataType": "OPERATOR",
    "category": "intermediary",
    "subcategory": "Operatorzy systemów"
  },
  {
    "id": "OPERATOR_32033_126",
    "name": "PAD RES STARGARD DYSTRYBUCJA spółka z ograniczoną odpowiedzialnością",
    "address": "ul. Władysława Łokietka 5/2",
    "postalCode": "70-254",
    "city": "Szczecin",
    "province": "zachodniopomorskie",
    "county": "szczeciński",
    "municipality": "Szczecin",
    "installationType": "OSDe",
    "operatorTypeDesc": "Operator systemu dystrybucyjnego elektroenergetycznego",
    "registrationDate": "2025-02-27",
    "validFrom": "2025-04-01",
    "validTo": "2032-06-24",
    "regon": "364300378",
    "nip": "8542411287",
    "fileUrl": "https://api.ure.gov.pl/api/ConcessionFuel/download/7BFEB728-189F-4C28-B71B-52ABFBA87319",
    "operatingArea": "Zgodnie z koncesją nr DEE/434/32033/W/OSZ/2022/APo1",
    "coordinates": [
      53.42916682287215,
      14.553121353749935
    ],
    "dataType": "OPERATOR",
    "category": "intermediary",
    "subcategory": "Operatorzy systemów"
  },
  {
    "id": "OPERATOR_70160_127",
    "name": "PAD RES SZTUM Sp. z o.o.",
    "address": "Al. Jana Pawła II 19 / p.10",
    "postalCode": "00-854",
    "city": "Warszawa",
    "province": "mazowieckie",
    "county": "warszawski",
    "municipality": "Warszawa",
    "installationType": "OSDe",
    "operatorTypeDesc": "Operator systemu dystrybucyjnego elektroenergetycznego",
    "registrationDate": "2023-10-06",
    "validFrom": "2023-11-01",
    "validTo": "2038-04-27",
    "regon": "386030170",
    "nip": "5771990813",
    "fileUrl": "https://api.ure.gov.pl/api/ConcessionFuel/download/C669205C-D6C6-4468-B30D-8575FA9687FC",
    "operatingArea": "Zgodnie z koncesją nr DEE/446/70160/W/OŁO/2023/BG",
    "coordinates": [
      52.2303711405087,
      21.012729704245686
    ],
    "dataType": "OPERATOR",
    "category": "intermediary",
    "subcategory": "Operatorzy systemów"
  },
  {
    "id": "OPERATOR_26409_128",
    "name": "Pal 1 Sp. z o.o.",
    "address": "ul. Kwidzyńska 11",
    "postalCode": "51-415",
    "city": "Wrocław",
    "province": "dolnośląskie",
    "county": "wrocławski",
    "municipality": "Wrocław",
    "installationType": "OSDe",
    "operatorTypeDesc": "Operator systemu dystrybucyjnego elektroenergetycznego",
    "registrationDate": "2016-06-14",
    "validFrom": "2016-07-06",
    "validTo": "2030-12-31",
    "regon": "362518624",
    "nip": "8952052853",
    "fileUrl": "https://api.ure.gov.pl/api/ConcessionFuel/download/07D4965D-38CE-4E9D-88B6-20890779DD4B",
    "operatingArea": "Zgodnie z koncesją nr DEE/361/26409/W/OWR/2015/AŁ",
    "coordinates": [
      51.10857147824527,
      17.037675462284287
    ],
    "dataType": "OPERATOR",
    "category": "intermediary",
    "subcategory": "Operatorzy systemów"
  },
  {
    "id": "OPERATOR_21237_129",
    "name": "PAL Sp. z o.o.",
    "address": "ul. Kwidzyńska 11",
    "postalCode": "51-415",
    "city": "Wrocław",
    "province": "dolnośląskie",
    "county": "wrocławski",
    "municipality": "Wrocław",
    "installationType": "OSDe",
    "operatorTypeDesc": "Operator systemu dystrybucyjnego elektroenergetycznego",
    "registrationDate": "2014-03-06",
    "validFrom": "2014-06-01",
    "validTo": "2030-12-31",
    "regon": "021784790",
    "nip": "1010005057",
    "fileUrl": "https://api.ure.gov.pl/api/ConcessionFuel/download/ADAA118F-141D-4F8A-9A63-E23E999D8003",
    "operatingArea": "Zgodnie z koncesją nr DEE/305/21237/W/OWR/2012/RP",
    "coordinates": [
      51.107833301247325,
      17.037598459817087
    ],
    "dataType": "OPERATOR",
    "category": "intermediary",
    "subcategory": "Operatorzy systemów"
  },
  {
    "id": "OPERATOR_66239_130",
    "name": "PAL2 sp. z o.o.",
    "address": "ul. Kwidzyńska 11",
    "postalCode": "51-415",
    "city": "Wrocław",
    "province": "dolnośląskie",
    "county": "wrocławski",
    "municipality": "Wrocław",
    "installationType": "OSDe",
    "operatorTypeDesc": "Operator systemu dystrybucyjnego elektroenergetycznego",
    "registrationDate": "2020-10-12",
    "validFrom": "2020-10-27",
    "validTo": "2030-12-31",
    "regon": "386012857",
    "nip": "8952217521",
    "fileUrl": "https://api.ure.gov.pl/api/ConcessionFuel/download/B4D9624F-7820-49DA-AEEA-115786AD4658",
    "operatingArea": "Zgodnie z koncesją nr DEE/412/66239/W/OWR/2020/HK",
    "coordinates": [
      51.10812386133993,
      17.038291970912468
    ],
    "dataType": "OPERATOR",
    "category": "intermediary",
    "subcategory": "Operatorzy systemów"
  },
  {
    "id": "OPERATOR_9195_131",
    "name": "PCC Energetyka Blachownia Sp. z o.o.",
    "address": "ul. Szkolna 15",
    "postalCode": "47-225",
    "city": "Kędzierzyn-Koźle",
    "province": "opolskie",
    "county": "kędzierzyńsko-kozielski",
    "municipality": "Kędzierzyn-Koźle",
    "installationType": "OSDe",
    "operatorTypeDesc": "Operator systemu dystrybucyjnego elektroenergetycznego",
    "registrationDate": "2012-04-26",
    "validFrom": "2012-07-01",
    "validTo": "2030-12-31",
    "regon": "531407532",
    "nip": "7491797766",
    "fileUrl": "https://api.ure.gov.pl/api/ConcessionFuel/download/0895F197-D625-4F53-B021-7C9A97AF99E0",
    "operatingArea": "Zgodnie z koncesją nr PEE/101/9195/W/1/99/RG",
    "coordinates": [
      50.34545313517256,
      18.24516454100853
    ],
    "dataType": "OPERATOR",
    "category": "intermediary",
    "subcategory": "Operatorzy systemów"
  },
  {
    "id": "OPERATOR_9256_132",
    "name": "PCC Rokita S.A.",
    "address": "ul. Sienkiewicza 4",
    "postalCode": "56-120",
    "city": "Brzeg Dolny",
    "province": "dolnośląskie",
    "county": "oławski",
    "municipality": "Góra Kalwaria",
    "installationType": "OSDe",
    "operatorTypeDesc": "Operator systemu dystrybucyjnego elektroenergetycznego",
    "registrationDate": "2012-05-25",
    "validFrom": "2012-10-01",
    "validTo": "2028-11-08",
    "regon": "930613932",
    "nip": "9170000015",
    "fileUrl": "https://api.ure.gov.pl/api/ConcessionFuel/download/FE142652-61EE-4202-8154-C80851E37149",
    "operatingArea": "Zgodnie z koncesją nr DEE/77/9256/W/2/2008/MZn",
    "coordinates": [
      51.26891836733337,
      16.708792913667942
    ],
    "dataType": "OPERATOR",
    "category": "intermediary",
    "subcategory": "Operatorzy systemów"
  },
  {
    "id": "OPERATOR_19029_133",
    "name": "PGE Dystrybucja S.A.",
    "address": "ul. Garbarska 21A",
    "postalCode": "20-340",
    "city": "Lublin",
    "province": "lubelskie",
    "county": "lubelski",
    "municipality": "Lublin",
    "installationType": "OSDe",
    "operatorTypeDesc": "Operator systemu dystrybucyjnego elektroenergetycznego",
    "registrationDate": "2010-08-31",
    "validFrom": "2007-07-01",
    "validTo": "2025-12-31",
    "regon": "060552840",
    "nip": "9462593855",
    "fileUrl": "https://api.ure.gov.pl/api/ConcessionFuel/download/C7CC1A9C-B4D3-419E-881A-DBE7DCB71F94",
    "operatingArea": "Zgodnie z koncesją nr DEE/42/19029/W/2/2010/BT",
    "coordinates": [
      51.24642223237562,
      22.56887277493714
    ],
    "dataType": "OPERATOR",
    "category": "intermediary",
    "subcategory": "Operatorzy systemów"
  },
  {
    "id": "OPERATOR_3158_134",
    "name": "PGE Energetyka Kolejowa S.A.",
    "address": "ul. Hoża 63/67",
    "postalCode": "00-681",
    "city": "Warszawa",
    "province": "mazowieckie",
    "county": "warszawski",
    "municipality": "Warszawa",
    "installationType": "OSDe",
    "operatorTypeDesc": "Operator systemu dystrybucyjnego elektroenergetycznego",
    "registrationDate": "2008-03-14",
    "validFrom": "2008-03-17",
    "validTo": "2030-12-31",
    "regon": "017301607",
    "nip": "5262542704",
    "fileUrl": "https://api.ure.gov.pl/api/ConcessionFuel/download/1FDCDA49-58F7-4E8E-AB12-556D3CD8FD4B",
    "operatingArea": "Zgodnie z koncesją nr PEE/237/3158/N/2/2001/MS",
    "coordinates": [
      52.23025737258689,
      21.01239179391899
    ],
    "dataType": "OPERATOR",
    "category": "intermediary",
    "subcategory": "Operatorzy systemów"
  },
  {
    "id": "OPERATOR_1262_135",
    "name": "PGE Energia Ciepła Spółka Akcyjna",
    "address": "ul. Złota 59",
    "postalCode": "00-120",
    "city": "Warszawa",
    "province": "mazowieckie",
    "county": "warszawski",
    "municipality": "Warszawa",
    "installationType": "OSDe",
    "operatorTypeDesc": "Operator systemu dystrybucyjnego elektroenergetycznego",
    "registrationDate": "2011-02-17",
    "validFrom": "2011-04-01",
    "validTo": "2028-12-31",
    "regon": "273204260",
    "nip": "6420000642",
    "fileUrl": "https://api.ure.gov.pl/api/ConcessionFuel/download/44511308-AD4E-418D-8962-FE7A78DE53F7",
    "operatingArea": "Zgodnie z koncesją nr DEE/85/1262/W/2/2008/BT",
    "coordinates": [
      52.22902732556762,
      21.012286115938245
    ],
    "dataType": "OPERATOR",
    "category": "intermediary",
    "subcategory": "Operatorzy systemów"
  },
  {
    "id": "OPERATOR_1249_136",
    "name": "PGE Górnictwo i Energetyka Konwencjonalna Spółka Akcyjna",
    "address": "ul. Węglowa 5",
    "postalCode": "97-400",
    "city": "Bełchatów",
    "province": "łódzkie",
    "county": "bełchatowski",
    "municipality": "Bełchatów",
    "installationType": "OSDe",
    "operatorTypeDesc": "Operator systemu dystrybucyjnego elektroenergetycznego",
    "registrationDate": "2012-10-31",
    "validFrom": "2012-11-01",
    "validTo": "2025-12-31",
    "regon": "000560207",
    "nip": "7690502495",
    "fileUrl": "https://api.ure.gov.pl/api/ConcessionFuel/download/C1301383-6E09-4DD6-9098-1D652A180926",
    "operatingArea": "Zgodnie z koncesją nr PEE/201/1249/W/1/2/2000/AS",
    "coordinates": [
      51.36712704785004,
      19.37043951776837
    ],
    "dataType": "OPERATOR",
    "category": "intermediary",
    "subcategory": "Operatorzy systemów"
  },
  {
    "id": "OPERATOR_1258_137",
    "name": "PGNIG Termika Energetyka Przemysłowa Spółka Akcyjna",
    "address": "ul. Rybnicka 6C",
    "postalCode": "44-335",
    "city": "Jastrzębie-Zdrój",
    "province": "śląskie",
    "county": "jastrzębski",
    "municipality": "Góra Kalwaria",
    "installationType": "OSDe",
    "operatorTypeDesc": "Operator systemu dystrybucyjnego elektroenergetycznego",
    "registrationDate": "2017-10-20",
    "validFrom": "2017-11-01",
    "validTo": "2026-08-31",
    "regon": "272711500",
    "nip": "6331005997",
    "fileUrl": "https://api.ure.gov.pl/api/ConcessionFuel/download/265E0C33-D63C-4A32-9D8D-F846F0CD819B",
    "operatingArea": "Zgodnie z koncesją nr DEE/374/1258/W/OKA/2017/RZ",
    "coordinates": [
      49.960548320461214,
      18.59843532751794
    ],
    "dataType": "OPERATOR",
    "category": "intermediary",
    "subcategory": "Operatorzy systemów"
  },
  {
    "id": "OPERATOR_30595_138",
    "name": "Pilkington Polska Spółka z ograniczoną odpowiedzialnością",
    "address": "ul. Portowa 24",
    "postalCode": "27-600",
    "city": "Sandomierz",
    "province": "świętokrzyskie",
    "county": "sandomierski",
    "municipality": "Sandomierz",
    "installationType": "OSDe",
    "operatorTypeDesc": "Operator systemu dystrybucyjnego elektroenergetycznego",
    "registrationDate": "2017-02-28",
    "validFrom": "2017-06-01",
    "validTo": "2030-12-31",
    "regon": "830169653",
    "nip": "8640004979",
    "fileUrl": "https://api.ure.gov.pl/api/ConcessionFuel/download/2935AFDD-0682-4788-9707-3C991EB43B93",
    "operatingArea": "Zgodnie z koncesją nr DEE/368/30595/W/DRE/2017/BT",
    "coordinates": [
      50.679752949046694,
      21.74891642000963
    ],
    "dataType": "OPERATOR",
    "category": "intermediary",
    "subcategory": "Operatorzy systemów"
  },
  {
    "id": "OPERATOR_19112_139",
    "name": "Plus Energia Spółka z ograniczoną odpowiedzialnością",
    "address": "ul. Grochowska 312",
    "postalCode": "03-839",
    "city": "Warszawa",
    "province": "mazowieckie",
    "county": "warszawski",
    "municipality": "Warszawa",
    "installationType": "OSDe",
    "operatorTypeDesc": "Operator systemu dystrybucyjnego elektroenergetycznego",
    "registrationDate": "2013-06-13",
    "validFrom": "2013-07-01",
    "validTo": "2026-03-31",
    "regon": "140974038",
    "nip": "5252395130",
    "fileUrl": "https://api.ure.gov.pl/api/ConcessionFuel/download/909F4E87-96E1-4755-93B7-80D14129AE80",
    "operatingArea": "Zgodnie z koncesją nr DEE/303/19112/W/2/2012/ŁG",
    "coordinates": [
      52.229219296835964,
      21.011866182614074
    ],
    "dataType": "OPERATOR",
    "category": "intermediary",
    "subcategory": "Operatorzy systemów"
  },
  {
    "id": "OPERATOR_18543_140",
    "name": "POLENERGIA Dystrybucja Spółka z ograniczoną odpowiedzialnością",
    "address": "ul. Krucza 24/26",
    "postalCode": "00-526",
    "city": "Warszawa",
    "province": "mazowieckie",
    "county": "warszawski",
    "municipality": "Warszawa",
    "installationType": "OSDe",
    "operatorTypeDesc": "Operator systemu dystrybucyjnego elektroenergetycznego",
    "registrationDate": "2009-07-17",
    "validFrom": "2009-07-20",
    "validTo": "2025-12-31",
    "regon": "192727078",
    "nip": "5871540127",
    "fileUrl": "https://api.ure.gov.pl/api/ConcessionFuel/download/EAA875A8-FA69-42B7-87BD-8BFE9C4DA707",
    "operatingArea": "Zgodnie z koncesją nr DEE/95/18543/W/2/2009/PJ",
    "coordinates": [
      52.230373974045555,
      21.011678874341204
    ],
    "dataType": "OPERATOR",
    "category": "intermediary",
    "subcategory": "Operatorzy systemów"
  },
  {
    "id": "OPERATOR_21860_141",
    "name": "Polontex Spółka Akcyjna",
    "address": "ul. Armii Krajowej 43",
    "postalCode": "42-360",
    "city": "Poraj",
    "province": "łódzkie",
    "county": "piotrkowski",
    "municipality": "Góra Kalwaria",
    "installationType": "OSDe",
    "operatorTypeDesc": "Operator systemu dystrybucyjnego elektroenergetycznego",
    "registrationDate": "2014-04-24",
    "validFrom": "2014-07-01",
    "validTo": "2033-10-07",
    "regon": "150916961",
    "nip": "5770009643",
    "fileUrl": "https://api.ure.gov.pl/api/ConcessionFuel/download/9DFBB158-E4D9-408E-BD56-9F4C15B35EA5",
    "operatingArea": "Zgodnie z koncesją nr DEE/319/21860/W/OKA/2013/RZ",
    "coordinates": [
      50.679350228546916,
      19.21319339085788
    ],
    "dataType": "OPERATOR",
    "category": "intermediary",
    "subcategory": "Operatorzy systemów"
  },
  {
    "id": "OPERATOR_4746_142",
    "name": "POLSKIE PORTY LOTNICZE S.A.",
    "address": "ul. Żwirki i Wigury 1",
    "postalCode": "00-906",
    "city": "Warszawa",
    "province": "mazowieckie",
    "county": "warszawski",
    "municipality": "Warszawa",
    "installationType": "OSDe",
    "operatorTypeDesc": "Operator systemu dystrybucyjnego elektroenergetycznego",
    "registrationDate": "2012-04-05",
    "validFrom": "2012-06-01",
    "validTo": "2030-12-31",
    "regon": "000126652",
    "nip": "5250000239",
    "fileUrl": "https://api.ure.gov.pl/api/ConcessionFuel/download/42E7A445-D69F-4730-AC91-0A285AFD947B",
    "operatingArea": "Zgodnie z koncesją nr PEE/279/4746/W/2/2004/BT",
    "coordinates": [
      52.22988327252725,
      21.011994780402024
    ],
    "dataType": "OPERATOR",
    "category": "intermediary",
    "subcategory": "Operatorzy systemów"
  },
  {
    "id": "OPERATOR_4988_143",
    "name": "Polskie Sieci Elektroenergetyczne Spółka Akcyjna",
    "address": "ul. Warszawska 165",
    "postalCode": "05-520",
    "city": "Konstancin-Jeziorna",
    "province": "mazowieckie",
    "county": "piaseczyński",
    "municipality": "Konstancin-Jeziorna",
    "installationType": "OSPe",
    "operatorTypeDesc": "Operator systemu przesyłowego elektroenergetycznego",
    "registrationDate": "2014-06-16",
    "validFrom": "2014-07-02",
    "validTo": "2030-12-31",
    "regon": "015668195",
    "nip": "5262748966",
    "fileUrl": "https://api.ure.gov.pl/api/ConcessionFuel/download/B7515E08-7F05-4241-B383-6F6FA110CF8A",
    "operatingArea": "Zgodnie z koncesją nr PEE/272/4988/W/2/2004/MS",
    "coordinates": [
      52.083463484194546,
      21.121639558849772
    ],
    "dataType": "OPERATOR",
    "category": "intermediary",
    "subcategory": "Operatorzy systemów"
  },
  {
    "id": "OPERATOR_28062_144",
    "name": "POTESTIA Sp. z o.o.",
    "address": "Aleja Jana Pawła II 22",
    "postalCode": "00-133",
    "city": "Warszawa",
    "province": "mazowieckie",
    "county": "warszawski",
    "municipality": "Warszawa",
    "installationType": "OSDe",
    "operatorTypeDesc": "Operator systemu dystrybucyjnego elektroenergetycznego",
    "registrationDate": "2019-04-10",
    "validFrom": "2019-05-01",
    "validTo": "2026-12-30",
    "regon": "363276063",
    "nip": "5272754572",
    "fileUrl": "https://api.ure.gov.pl/api/ConcessionFuel/download/6B09C1C0-5DDE-4F63-AF47-7F7F5AADCD49",
    "operatingArea": "Zgodnie z koncesją nr DEE/376/28062/W/OLO/2017/DSa",
    "coordinates": [
      52.22962822469563,
      21.012335546927254
    ],
    "dataType": "OPERATOR",
    "category": "intermediary",
    "subcategory": "Operatorzy systemów"
  },
  {
    "id": "OPERATOR_13885_145",
    "name": "Power 21 Sp. z o. o.",
    "address": "ul. Stefana Okrzei 26 / 1",
    "postalCode": "03-710",
    "city": "Warszawa",
    "province": "mazowieckie",
    "county": "warszawski",
    "municipality": "Warszawa",
    "installationType": "OSDe",
    "operatorTypeDesc": "Operator systemu dystrybucyjnego elektroenergetycznego",
    "registrationDate": "2012-12-10",
    "validFrom": "2013-01-01",
    "validTo": "2027-11-25",
    "regon": "140799150",
    "nip": "1080002532",
    "fileUrl": "https://api.ure.gov.pl/api/ConcessionFuel/download/4964FA48-C6FA-4FFC-B513-CF8667F91E66",
    "operatingArea": "Zgodnie z koncesją nr DEE/57/13885/W/2/2007/MB",
    "coordinates": [
      52.23009202055001,
      21.01274854470549
    ],
    "dataType": "OPERATOR",
    "category": "intermediary",
    "subcategory": "Operatorzy systemów"
  },
  {
    "id": "OPERATOR_443_146",
    "name": "Przedsiębiorstwo Energetyki Cieplnej i Gospodarki Wodno-Ściekowej \"ENWOS\" Sp. z o.o.",
    "address": "Plac Kilińskiego 1",
    "postalCode": "32-660",
    "city": "Chełmek",
    "province": "małopolskie",
    "county": "oświęcimski",
    "municipality": "Chełm",
    "installationType": "OSDe",
    "operatorTypeDesc": "Operator systemu dystrybucyjnego elektroenergetycznego",
    "registrationDate": "2012-05-30",
    "validFrom": "2012-08-01",
    "validTo": "2040-01-01",
    "regon": "070505955",
    "nip": "5490003906",
    "fileUrl": "https://api.ure.gov.pl/api/ConcessionFuel/download/D65C5727-011F-4484-9C92-9043EE74A5A5",
    "operatingArea": "Zgodnie z koncesją nr PEE/217/443/W/1/2/2000/AS",
    "coordinates": [
      51.14269993839348,
      23.472391810707798
    ],
    "dataType": "OPERATOR",
    "category": "intermediary",
    "subcategory": "Operatorzy systemów"
  },
  {
    "id": "OPERATOR_248_147",
    "name": "Przedsiębiorstwo Energetyki Cieplnej Legionowo Sp. z o.o.",
    "address": "ul. Sowińskiego 37",
    "postalCode": "05-120",
    "city": "Legionowo",
    "province": "mazowieckie",
    "county": "legionowski",
    "municipality": "Legionowo",
    "installationType": "OSDe",
    "operatorTypeDesc": "Operator systemu dystrybucyjnego elektroenergetycznego",
    "registrationDate": "2015-04-22",
    "validFrom": "2015-07-01",
    "validTo": "2030-12-31",
    "regon": "010617968",
    "nip": "5360012640",
    "fileUrl": "https://api.ure.gov.pl/api/ConcessionFuel/download/679231A0-3765-4D7D-A51B-DC46DF7DA46A",
    "operatingArea": "Zgodnie z koncesją nr DEE/336/248/W/OŁO/2014/KK",
    "coordinates": [
      52.395466137828805,
      20.930985186876725
    ],
    "dataType": "OPERATOR",
    "category": "intermediary",
    "subcategory": "Operatorzy systemów"
  },
  {
    "id": "OPERATOR_351_148",
    "name": "Przedsiębiorstwo Energetyki Cieplnej w Końskich sp. z o. o.",
    "address": "ul. Armii Krajowej 5",
    "postalCode": "26-200",
    "city": "Końskie",
    "province": "świętokrzyskie",
    "county": "konecki",
    "municipality": "Końskie",
    "installationType": "OSDe",
    "operatorTypeDesc": "Operator systemu dystrybucyjnego elektroenergetycznego",
    "registrationDate": "2011-01-12",
    "validFrom": "2011-03-01",
    "validTo": "2029-10-31",
    "regon": "366382707",
    "nip": "6581985063",
    "fileUrl": "https://api.ure.gov.pl/api/ConcessionFuel/download/8B07E720-6C49-47F9-9A8C-49DBEDF4AFE0",
    "operatingArea": "Zgodnie z koncesją nr PEE/182/351/W/1/2/99/AS",
    "coordinates": [
      51.19081116043506,
      20.407481227544015
    ],
    "dataType": "OPERATOR",
    "category": "intermediary",
    "subcategory": "Operatorzy systemów"
  },
  {
    "id": "OPERATOR_4158_149",
    "name": "Przedsiębiorstwo Handlowo-Usługowe Brodzik Spółka Komandytowa",
    "address": "ul. 11-go Listopada 2/4",
    "postalCode": "42-400",
    "city": "Zawiercie",
    "province": "śląskie",
    "county": "zawierciański",
    "municipality": "Góra Kalwaria",
    "installationType": "OSDe",
    "operatorTypeDesc": "Operator systemu dystrybucyjnego elektroenergetycznego",
    "registrationDate": "2014-02-19",
    "validFrom": "2014-05-01",
    "validTo": "2043-12-31",
    "regon": "276919522",
    "nip": "6492037525",
    "fileUrl": "https://api.ure.gov.pl/api/ConcessionFuel/download/6A699470-EBD0-4440-B3E5-06213406D2AD",
    "operatingArea": "Zgodnie z koncesją nr DEE/315/4158/W/DRG/2013/KL",
    "coordinates": [
      50.5050401539292,
      19.472099714540313
    ],
    "dataType": "OPERATOR",
    "category": "intermediary",
    "subcategory": "Operatorzy systemów"
  },
  {
    "id": "OPERATOR_3647_150",
    "name": "Przedsiębiorstwo Produkcyjno-Usługowe \"STOREM\" Sp. z o.o.",
    "address": "ul. 1-go Maja 100",
    "postalCode": "32-340",
    "city": "Wolbrom",
    "province": "małopolskie",
    "county": "olkuski",
    "municipality": "Góra Kalwaria",
    "installationType": "OSDe",
    "operatorTypeDesc": "Operator systemu dystrybucyjnego elektroenergetycznego",
    "registrationDate": "2012-04-27",
    "validFrom": "2012-08-01",
    "validTo": "2030-12-31",
    "regon": "271076697",
    "nip": "6370102440",
    "fileUrl": "https://api.ure.gov.pl/api/ConcessionFuel/download/4E796224-09FD-4B9B-8C1F-231F8B5C96A3",
    "operatingArea": "Zgodnie z koncesją nr PEE/110/3647/U/OKA/99/BM",
    "coordinates": [
      50.384269528667126,
      19.760756013213527
    ],
    "dataType": "OPERATOR",
    "category": "intermediary",
    "subcategory": "Operatorzy systemów"
  },
  {
    "id": "OPERATOR_23550_151",
    "name": "PSSE Media Operator Spółka z ograniczoną odpowiedzialnością",
    "address": "ul. Na Ostrowiu 15/20",
    "postalCode": "80-873",
    "city": "Gdańsk",
    "province": "pomorskie",
    "county": "gdański",
    "municipality": "Gdańsk",
    "installationType": "OSDe",
    "operatorTypeDesc": "Operator systemu dystrybucyjnego elektroenergetycznego",
    "registrationDate": "2015-07-10",
    "validFrom": "2015-09-01",
    "validTo": "2035-01-01",
    "regon": "220233099",
    "nip": "5832992983",
    "fileUrl": "https://api.ure.gov.pl/api/ConcessionFuel/download/2080A6C8-B936-4B75-82EB-7377E17759B1",
    "operatingArea": "Zgodnie z koncesją nr DEE/338/23550/W/OGD/2014/KG",
    "coordinates": [
      54.3510286731041,
      18.645618998189608
    ],
    "dataType": "OPERATOR",
    "category": "intermediary",
    "subcategory": "Operatorzy systemów"
  },
  {
    "id": "OPERATOR_683_152",
    "name": "QEMETICA AGRICULTURAL SOLUTIONS POLAND S.A.",
    "address": "ul. Chemików 1",
    "postalCode": "37-310",
    "city": "Nowa Sarzyna",
    "province": "podkarpackie",
    "county": "stalowowolski",
    "municipality": "Góra Kalwaria",
    "installationType": "OSDe",
    "operatorTypeDesc": "Operator systemu dystrybucyjnego elektroenergetycznego",
    "registrationDate": "2011-05-10",
    "validFrom": "2011-09-01",
    "validTo": "2025-12-31",
    "regon": "000042352",
    "nip": "8160001828",
    "fileUrl": "https://api.ure.gov.pl/api/ConcessionFuel/download/CF96DE93-83D8-4532-9D53-18DA01934A72",
    "operatingArea": "Zgodnie z koncesją nr PEE/227/683/W/1/2/2001/AS",
    "coordinates": [
      50.31944284349079,
      22.342512120699222
    ],
    "dataType": "OPERATOR",
    "category": "intermediary",
    "subcategory": "Operatorzy systemów"
  },
  {
    "id": "OPERATOR_13971_153",
    "name": "Qemetica Soda Polska Spółka Akcyjna",
    "address": "ul. Fabryczna 4",
    "postalCode": "88-101",
    "city": "Inowrocław",
    "province": "kujawsko-pomorskie",
    "county": "inowrocławski",
    "municipality": "Inowrocław",
    "installationType": "OSDe",
    "operatorTypeDesc": "Operator systemu dystrybucyjnego elektroenergetycznego",
    "registrationDate": "2007-04-07",
    "validFrom": "2011-06-01",
    "validTo": "2025-12-31",
    "regon": "140777645",
    "nip": "5252382127",
    "fileUrl": "https://api.ure.gov.pl/api/ConcessionFuel/download/E0D63564-CC46-4A15-A34F-1E771470AF21",
    "operatingArea": "Zgodnie z koncesją nr DEE/60/13971/W/OWA/2008/BH",
    "coordinates": [
      52.78243925590154,
      18.245952867127084
    ],
    "dataType": "OPERATOR",
    "category": "intermediary",
    "subcategory": "Operatorzy systemów"
  },
  {
    "id": "OPERATOR_64518_154",
    "name": "Rampton Sp. z o.o.",
    "address": "Al. Jerozolimskie 98",
    "postalCode": "00-807",
    "city": "Warszawa",
    "province": "mazowieckie",
    "county": "warszawski",
    "municipality": "Warszawa",
    "installationType": "OSDe",
    "operatorTypeDesc": "Operator systemu dystrybucyjnego elektroenergetycznego",
    "registrationDate": "2019-09-30",
    "validFrom": "2019-10-11",
    "validTo": "2030-12-31",
    "regon": "380832358",
    "nip": "5252757366",
    "fileUrl": "https://api.ure.gov.pl/api/ConcessionFuel/download/5A99C004-6A67-474C-84A0-F1EDD921DE30",
    "operatingArea": "Zgodnie z koncesją nr DEE/397/64518/W/OLO/2019/MGG",
    "coordinates": [
      52.22981807406318,
      21.01268073034652
    ],
    "dataType": "OPERATOR",
    "category": "intermediary",
    "subcategory": "Operatorzy systemów"
  },
  {
    "id": "OPERATOR_1928_155",
    "name": "RCEkoenergia Sp. z o.o.",
    "address": "ul. Łukasiewicza 2",
    "postalCode": "43-502",
    "city": "Czechowice-Dziedzice",
    "province": "śląskie",
    "county": "bielski",
    "municipality": "Czechowice-Dziedzice",
    "installationType": "OSDe",
    "operatorTypeDesc": "Operator systemu dystrybucyjnego elektroenergetycznego",
    "registrationDate": "2011-11-10",
    "validFrom": "2012-01-01",
    "validTo": "2046-01-31",
    "regon": "072368379",
    "nip": "6521599741",
    "fileUrl": "https://api.ure.gov.pl/api/ConcessionFuel/download/171BBBF7-6B8D-4A0C-B41E-EC431AD044AA",
    "operatingArea": "Zgodnie z koncesją nr PEE/225/1928/W/1/2/2001/AS",
    "coordinates": [
      49.911509332183826,
      19.00814110684786
    ],
    "dataType": "OPERATOR",
    "category": "intermediary",
    "subcategory": "Operatorzy systemów"
  },
  {
    "id": "OPERATOR_64263_156",
    "name": "Regionalna Spółka Energetyczna RSE spółka z ograniczoną odpowiedzialnością",
    "address": "Husarska 10",
    "postalCode": "66-400",
    "city": "Gorzów Wlkp.",
    "province": "lubuskie",
    "county": "zielonogórski",
    "municipality": "Gorzów Wielkopolski",
    "installationType": "OSDe",
    "operatorTypeDesc": "Operator systemu dystrybucyjnego elektroenergetycznego",
    "registrationDate": "2023-01-30",
    "validFrom": "2023-03-01",
    "validTo": "2032-04-04",
    "regon": "368927950",
    "nip": "5993213228",
    "fileUrl": "https://api.ure.gov.pl/api/ConcessionFuel/download/04F3E3E1-E22F-4625-B94E-AE6301C90F7F",
    "operatingArea": "Zgodnie z koncesją nr DEE/428/64263/W/DRE/2022/BT",
    "coordinates": [
      52.73080194764303,
      15.209880007472456
    ],
    "dataType": "OPERATOR",
    "category": "intermediary",
    "subcategory": "Operatorzy systemów"
  },
  {
    "id": "OPERATOR_68495_157",
    "name": "Side I sp. z o.o.",
    "address": "ul. Kwidzyńska 11",
    "postalCode": "51-415",
    "city": "Wrocław",
    "province": "dolnośląskie",
    "county": "wrocławski",
    "municipality": "Wrocław",
    "installationType": "OSDe",
    "operatorTypeDesc": "Operator systemu dystrybucyjnego elektroenergetycznego",
    "registrationDate": "2021-04-27",
    "validFrom": "2021-05-20",
    "validTo": "2030-12-31",
    "regon": "383106954",
    "nip": "8952205009",
    "fileUrl": "https://api.ure.gov.pl/api/ConcessionFuel/download/666AF0E8-CB55-40B0-B56F-EE53943D2A23",
    "operatingArea": "Zgodnie z koncesją nr DEE/414/68495/W/OWR/2020/AM",
    "coordinates": [
      51.10744887825018,
      17.03827461559213
    ],
    "dataType": "OPERATOR",
    "category": "intermediary",
    "subcategory": "Operatorzy systemów"
  },
  {
    "id": "OPERATOR_22726_158",
    "name": "SIDE Sp. z o.o.",
    "address": "ul. Kwidzyńska 11",
    "postalCode": "51-415",
    "city": "Wrocław",
    "province": "dolnośląskie",
    "county": "wrocławski",
    "municipality": "Wrocław",
    "installationType": "OSDe",
    "operatorTypeDesc": "Operator systemu dystrybucyjnego elektroenergetycznego",
    "registrationDate": "2014-12-31",
    "validFrom": "2015-03-01",
    "validTo": "2030-12-31",
    "regon": "021981154",
    "nip": "8952016449",
    "fileUrl": "https://api.ure.gov.pl/api/ConcessionFuel/download/8A1BC184-5243-427D-ADA1-F528B3D75AE7",
    "operatingArea": "Zgodnie z koncesją nr DEE/324/22726/W/OWR/2014/RP",
    "coordinates": [
      51.107933763804404,
      17.03848546304311
    ],
    "dataType": "OPERATOR",
    "category": "intermediary",
    "subcategory": "Operatorzy systemów"
  },
  {
    "id": "OPERATOR_1493_159",
    "name": "Spółka Restrukturyzacji Kopalń S.A.",
    "address": "ul. Strzelców Bytomskich nr 207",
    "postalCode": "41-914",
    "city": "Bytom",
    "province": "śląskie",
    "county": "bytomski",
    "municipality": "Bytom",
    "installationType": "OSDe",
    "operatorTypeDesc": "Operator systemu dystrybucyjnego elektroenergetycznego",
    "registrationDate": "2012-04-03",
    "validFrom": "2012-06-01",
    "validTo": "2030-12-31",
    "regon": "276902504",
    "nip": "6262619005",
    "fileUrl": "https://api.ure.gov.pl/api/ConcessionFuel/download/335E2E3F-B6ED-476F-9385-6E82B723D142",
    "operatingArea": "Zgodnie z koncesją nr DEE/293/1493/W/2/2011/BT",
    "coordinates": [
      50.34783600076972,
      18.916963195820205
    ],
    "dataType": "OPERATOR",
    "category": "intermediary",
    "subcategory": "Operatorzy systemów"
  },
  {
    "id": "OPERATOR_1553_160",
    "name": "STALPRODUKT S.A.",
    "address": "Wygoda 69",
    "postalCode": "32-700",
    "city": "Bochnia",
    "province": "małopolskie",
    "county": "bocheński",
    "municipality": "Góra Kalwaria",
    "installationType": "OSDe",
    "operatorTypeDesc": "Operator systemu dystrybucyjnego elektroenergetycznego",
    "registrationDate": {
      "$": {
        "xsi:nil": "true"
      }
    },
    "validFrom": "2022-08-01",
    "validTo": "2029-08-25",
    "regon": "850008147",
    "nip": "8680000775",
    "fileUrl": "",
    "operatingArea": "stwierdzono zamknięty system dystrybucyjny na obszarze zakłądu przemysłowego STALPRODUKT S.A. położonego: 1) w Bochni przy ul. Wygoda 69; 2) w Borku gm. Rzezawa na działkach o nr ewid. 2110 i 2097 3) we Włocławku przy Al. Kazimierza Wielkiego 4",
    "coordinates": [
      49.96979623746179,
      20.429851623860646
    ],
    "dataType": "OPERATOR",
    "category": "intermediary",
    "subcategory": "Operatorzy systemów"
  },
  {
    "id": "OPERATOR_1553_161",
    "name": "STALPRODUKT S.A.",
    "address": "Wygoda 69",
    "postalCode": "32-700",
    "city": "Bochnia",
    "province": "małopolskie",
    "county": "bocheński",
    "municipality": "Góra Kalwaria",
    "installationType": "OSDe",
    "operatorTypeDesc": "Operator systemu dystrybucyjnego elektroenergetycznego",
    "registrationDate": "2012-02-13",
    "validFrom": "2012-04-01",
    "validTo": "2029-08-25",
    "regon": "850008147",
    "nip": "8680000775",
    "fileUrl": "https://api.ure.gov.pl/api/ConcessionFuel/download/78F1F8AE-B2BD-4299-9B3B-72D2AB7CCC6A",
    "operatingArea": "Zgodnie z koncesją nr PEE/176/1553/U/1/2/99/RG",
    "coordinates": [
      49.96867923697682,
      20.430983645158875
    ],
    "dataType": "OPERATOR",
    "category": "intermediary",
    "subcategory": "Operatorzy systemów"
  },
  {
    "id": "OPERATOR_13824_162",
    "name": "Stoen Operator Spółka z ograniczoną odpowiedzialnością",
    "address": "ul. Piękna 46",
    "postalCode": "00-672",
    "city": "Warszawa",
    "province": "mazowieckie",
    "county": "warszawski",
    "municipality": "Warszawa",
    "installationType": "OSDe",
    "operatorTypeDesc": "Operator systemu dystrybucyjnego elektroenergetycznego",
    "registrationDate": "2007-06-29",
    "validFrom": "2007-07-01",
    "validTo": "2025-12-31",
    "regon": "140787780",
    "nip": "5252386094",
    "fileUrl": "https://api.ure.gov.pl/api/ConcessionFuel/download/90BB9C89-39C2-4364-AA28-31BCE8DCC824",
    "operatingArea": "Zgodnie z koncesją nr DEE/41/13824/W/2/2007/BT",
    "coordinates": [
      52.23015744880616,
      21.01301934419411
    ],
    "dataType": "OPERATOR",
    "category": "intermediary",
    "subcategory": "Operatorzy systemów"
  },
  {
    "id": "OPERATOR_3273_163",
    "name": "Synthos Dwory 7 Spółka z ograniczoną odpowiedzialnością",
    "address": "ul. Chemików 1",
    "postalCode": "32-600",
    "city": "Oświęcim",
    "province": "małopolskie",
    "county": "oświęcimski",
    "municipality": "Warszawa",
    "installationType": "OSDe",
    "operatorTypeDesc": "Operator systemu dystrybucyjnego elektroenergetycznego",
    "registrationDate": "2008-07-24",
    "validFrom": "2008-09-01",
    "validTo": "2030-12-31",
    "regon": "260133662",
    "nip": "9591762828",
    "fileUrl": "https://api.ure.gov.pl/api/ConcessionFuel/download/0A372300-42F6-463D-B062-5A8617D7E80A",
    "operatingArea": "Zgodnie z koncesją nr PEE/239/3273/W/2/2001/MS",
    "coordinates": [
      50.03445898235329,
      19.259989448875835
    ],
    "dataType": "OPERATOR",
    "category": "intermediary",
    "subcategory": "Operatorzy systemów"
  },
  {
    "id": "OPERATOR_23038_164",
    "name": "Tauron Ciepło Spółka z ograniczoną odpowiedzialnością",
    "address": "ul. Grażyńskiego 49",
    "postalCode": "40-126",
    "city": "Katowice",
    "province": "śląskie",
    "county": "katowicki",
    "municipality": "Katowice",
    "installationType": "OSDe",
    "operatorTypeDesc": "Operator systemu dystrybucyjnego elektroenergetycznego",
    "registrationDate": "2019-06-17",
    "validFrom": "2019-07-01",
    "validTo": "2030-12-31",
    "regon": "242734832",
    "nip": "9542732017",
    "fileUrl": "https://api.ure.gov.pl/api/ConcessionFuel/download/78F4AC24-D39B-4208-A2C8-133522F7C49E",
    "operatingArea": "Zgodnie z koncesją nr DEE/392/23038/W/OKA/2019/CW",
    "coordinates": [
      50.26504679256706,
      19.024313148460426
    ],
    "dataType": "OPERATOR",
    "category": "intermediary",
    "subcategory": "Operatorzy systemów"
  },
  {
    "id": "OPERATOR_2698_165",
    "name": "Tauron Dystrybucja S.A.",
    "address": "ul. Podgórska 25A",
    "postalCode": "31-035",
    "city": "Kraków",
    "province": "małopolskie",
    "county": "krakowski",
    "municipality": "Kraków",
    "installationType": "OSDe",
    "operatorTypeDesc": "Operator systemu dystrybucyjnego elektroenergetycznego",
    "registrationDate": "2008-12-31",
    "validFrom": "2009-01-01",
    "validTo": "2025-12-31",
    "regon": "230179216",
    "nip": "6110202860",
    "fileUrl": "https://api.ure.gov.pl/api/ConcessionFuel/download/F94A14B7-21DA-4780-A693-0AB6B972D100",
    "operatingArea": "Zgodnie z koncesją nr PEE/19/2698/U/1/98/JK",
    "coordinates": [
      50.064376490593794,
      19.944493478627663
    ],
    "dataType": "OPERATOR",
    "category": "intermediary",
    "subcategory": "Operatorzy systemów"
  },
  {
    "id": "OPERATOR_64435_166",
    "name": "TB 2 Energia Spółka z ograniczoną odpowiedzialnością Spółka komandytowa",
    "address": "ul. Dolinna 27",
    "postalCode": "94-111",
    "city": "Łódź",
    "province": "łódzkie",
    "county": "łódzki",
    "municipality": "Łódź",
    "installationType": "OSDe",
    "operatorTypeDesc": "Operator systemu dystrybucyjnego elektroenergetycznego",
    "registrationDate": "2020-10-27",
    "validFrom": "2020-12-01",
    "validTo": "2029-10-31",
    "regon": "369375257",
    "nip": "7272825072",
    "fileUrl": "https://api.ure.gov.pl/api/ConcessionFuel/download/6BA53326-B703-4CDF-9433-3EB7B661AC77",
    "operatingArea": "Zgodnie z koncesją nr DEE/401/64435/W/OLO/2019/JKr1",
    "coordinates": [
      51.759208336057476,
      19.45685605949726
    ],
    "dataType": "OPERATOR",
    "category": "intermediary",
    "subcategory": "Operatorzy systemów"
  },
  {
    "id": "OPERATOR_31776_167",
    "name": "TB ENERGIA Sp. z o.o.",
    "address": "ul. Walerego Wróblewskiego 86",
    "postalCode": "94-103",
    "city": "Łódź",
    "province": "łódzkie",
    "county": "łódzki",
    "municipality": "Łódź",
    "installationType": "OSDe",
    "operatorTypeDesc": "Operator systemu dystrybucyjnego elektroenergetycznego",
    "registrationDate": "2018-06-18",
    "validFrom": "2018-08-01",
    "validTo": "2028-04-16",
    "regon": "363322410",
    "nip": "7292709825",
    "fileUrl": "https://api.ure.gov.pl/api/ConcessionFuel/download/0BBD77C0-9E84-41E7-8A74-A06B2A9292D6",
    "operatingArea": "Zgodnie z koncesją nr DEE/378/31776/W/OLO/2018/JKr1",
    "coordinates": [
      51.75837854603953,
      19.45532930479491
    ],
    "dataType": "OPERATOR",
    "category": "intermediary",
    "subcategory": "Operatorzy systemów"
  },
  {
    "id": "OPERATOR_23926_168",
    "name": "TELENERG-BIS ENERGIA Sp. z o.o.",
    "address": "ul. Dolinna 27",
    "postalCode": "94-111",
    "city": "Łódź",
    "province": "łódzkie",
    "county": "łódzki",
    "municipality": "Łódź",
    "installationType": "OSDe",
    "operatorTypeDesc": "Operator systemu dystrybucyjnego elektroenergetycznego",
    "registrationDate": "2014-12-15",
    "validFrom": "2015-01-01",
    "validTo": "2030-12-31",
    "regon": "101407829",
    "nip": "7272786722",
    "fileUrl": "https://api.ure.gov.pl/api/ConcessionFuel/download/8A7E7C6C-259A-41AC-A41B-6995040EF004",
    "operatingArea": "Zgodnie z koncesją nr DEE/330/23926/W/OLO/2014/KK",
    "coordinates": [
      51.759486633630665,
      19.455985589371632
    ],
    "dataType": "OPERATOR",
    "category": "intermediary",
    "subcategory": "Operatorzy systemów"
  },
  {
    "id": "OPERATOR_21618_169",
    "name": "Terawat Dystrybucja Sp. z o.o.",
    "address": "ul. Wrocławska 94",
    "postalCode": "41-902",
    "city": "Bytom",
    "province": "śląskie",
    "county": "bytomski",
    "municipality": "Bytom",
    "installationType": "OSDe",
    "operatorTypeDesc": "Operator systemu dystrybucyjnego elektroenergetycznego",
    "registrationDate": "2013-06-13",
    "validFrom": "2013-07-01",
    "validTo": "2040-12-31",
    "regon": "242709410",
    "nip": "6263002689",
    "fileUrl": "https://api.ure.gov.pl/api/ConcessionFuel/download/F7F20408-C311-4894-A2A8-AE5E1C604B52",
    "operatingArea": "Zgodnie z koncesją nr DEE/309/21618/W/OKA/2012/RZ",
    "coordinates": [
      50.348485388107164,
      18.91645297932343
    ],
    "dataType": "OPERATOR",
    "category": "intermediary",
    "subcategory": "Operatorzy systemów"
  },
  {
    "id": "OPERATOR_23522_170",
    "name": "TOKAI COBEX Polska Sp. z o.o.",
    "address": "ul. Piastowska 29",
    "postalCode": "47-400",
    "city": "Racibórz",
    "province": "śląskie",
    "county": "raciborski",
    "municipality": "Racibórz",
    "installationType": "OSDe",
    "operatorTypeDesc": "Operator systemu dystrybucyjnego elektroenergetycznego",
    "registrationDate": "2022-04-06",
    "validFrom": "2022-05-01",
    "validTo": "2030-12-31",
    "regon": "271187824",
    "nip": "6390003994",
    "fileUrl": "",
    "operatingArea": "ZAMKNIĘTY SYSTEM DYSTRYBUCYJNY",
    "coordinates": [
      50.09115984642963,
      18.2159859190153
    ],
    "dataType": "OPERATOR",
    "category": "intermediary",
    "subcategory": "Operatorzy systemów"
  },
  {
    "id": "OPERATOR_23522_171",
    "name": "TOKAI COBEX Polska Sp. z o.o.",
    "address": "ul. Piastowska 29",
    "postalCode": "47-400",
    "city": "Racibórz",
    "province": "śląskie",
    "county": "raciborski",
    "municipality": "Racibórz",
    "installationType": "OSDe",
    "operatorTypeDesc": "Operator systemu dystrybucyjnego elektroenergetycznego",
    "registrationDate": "2017-04-24",
    "validFrom": "2017-07-01",
    "validTo": "2030-12-31",
    "regon": "271187824",
    "nip": "6390003994",
    "fileUrl": "https://api.ure.gov.pl/api/ConcessionFuel/download/A6528014-FBF2-4A0A-BAE9-E275CC5A1F98",
    "operatingArea": "Zgodnie z koncesją nr DEE/367/23522/W/DRE/2017/ZJ",
    "coordinates": [
      50.08984846062919,
      18.21444326240104
    ],
    "dataType": "OPERATOR",
    "category": "intermediary",
    "subcategory": "Operatorzy systemów"
  },
  {
    "id": "OPERATOR_4399_172",
    "name": "Towarzystwo Inwestycyjne Elektrownia-Wschód Spółka Akcyjna",
    "address": "ul. Frezerów 13",
    "postalCode": "20-209",
    "city": "Lublin",
    "province": "lubelskie",
    "county": "lubelski",
    "municipality": "Lublin",
    "installationType": "OSDe",
    "operatorTypeDesc": "Operator systemu dystrybucyjnego elektroenergetycznego",
    "registrationDate": "2011-08-26",
    "validFrom": "2011-10-01",
    "validTo": "2034-03-06",
    "regon": "430907543",
    "nip": "7122353855",
    "fileUrl": "https://api.ure.gov.pl/api/ConcessionFuel/download/9DF3C5D8-DA66-4362-8EA2-90436CDD3D44",
    "operatingArea": "Zgodnie z koncesją nr PEE/268/4399/W/2/2004/MS",
    "coordinates": [
      51.24660281815274,
      22.568633359428734
    ],
    "dataType": "OPERATOR",
    "category": "intermediary",
    "subcategory": "Operatorzy systemów"
  },
  {
    "id": "OPERATOR_9106_173",
    "name": "Unihut Spółka Akcyjna",
    "address": "ul. Igołomska 28H",
    "postalCode": "31-983",
    "city": "Kraków",
    "province": "małopolskie",
    "county": "krakowski",
    "municipality": "Kraków",
    "installationType": "OSDe",
    "operatorTypeDesc": "Operator systemu dystrybucyjnego elektroenergetycznego",
    "registrationDate": "2013-04-23",
    "validFrom": "2013-07-01",
    "validTo": "2030-12-31",
    "regon": "001262601",
    "nip": "6780027057",
    "fileUrl": "https://api.ure.gov.pl/api/ConcessionFuel/download/30090D38-BF8A-4B66-8E94-A89F2A1500EE",
    "operatingArea": "Zgodnie z koncesją nr PEE/97/9106/W/1/98/MS",
    "coordinates": [
      50.064390819700364,
      19.944391704727764
    ],
    "dataType": "OPERATOR",
    "category": "intermediary",
    "subcategory": "Operatorzy systemów"
  },
  {
    "id": "OPERATOR_1203_174",
    "name": "UNIMOT TERMINALE Sp. z o.o.",
    "address": "Łukasiewicza 2",
    "postalCode": "43-502",
    "city": "Czechowice-Dziedzice",
    "province": "śląskie",
    "county": "bielski",
    "municipality": "Czechowice-Dziedzice",
    "installationType": "OSDe",
    "operatorTypeDesc": "Operator systemu dystrybucyjnego elektroenergetycznego",
    "registrationDate": "2025-05-21",
    "validFrom": "2025-07-01",
    "validTo": "2045-12-31",
    "regon": "272866059",
    "nip": "6520005136",
    "fileUrl": "https://api.ure.gov.pl/api/ConcessionFuel/download/F9A26678-3E01-428B-85F2-9301449EDE4A",
    "operatingArea": "Zgodnie z koncesją nr DEE/465/1203/W/OKA/2025/PCR",
    "coordinates": [
      49.91044475530705,
      19.007527035343323
    ],
    "dataType": "OPERATOR",
    "category": "intermediary",
    "subcategory": "Operatorzy systemów"
  },
  {
    "id": "OPERATOR_154_175",
    "name": "Veolia Energia Poznań S.A.",
    "address": "ul.Energetyczna 3",
    "postalCode": "61-016",
    "city": "Poznań",
    "province": "wielkopolskie",
    "county": "poznański",
    "municipality": "Poznań",
    "installationType": "OSDe",
    "operatorTypeDesc": "Operator systemu dystrybucyjnego elektroenergetycznego",
    "registrationDate": "2010-09-15",
    "validFrom": "2010-09-15",
    "validTo": "2030-12-31",
    "regon": "630956570",
    "nip": "7770000755",
    "fileUrl": "https://api.ure.gov.pl/api/ConcessionFuel/download/EE7AFDE5-C60D-4B78-B8B7-203CE6629DEA",
    "operatingArea": "Zgodnie z koncesją nr DEE/89/154/W/OPO/2009/AJ",
    "coordinates": [
      52.40732247013444,
      16.925408175470544
    ],
    "dataType": "OPERATOR",
    "category": "intermediary",
    "subcategory": "Operatorzy systemów"
  },
  {
    "id": "OPERATOR_18728_176",
    "name": "Veolia Powerline Kaczyce Sp. z o.o.",
    "address": "ul. Morcinka 17",
    "postalCode": "43-417",
    "city": "Kaczyce",
    "province": "śląskie",
    "county": "cieszyński",
    "municipality": "Zebrzydowice",
    "installationType": "OSDe",
    "operatorTypeDesc": "Operator systemu dystrybucyjnego elektroenergetycznego",
    "registrationDate": "2011-03-10",
    "validFrom": "2011-05-01",
    "validTo": "2030-12-31",
    "regon": "141189229",
    "nip": "5252411277",
    "fileUrl": "https://api.ure.gov.pl/api/ConcessionFuel/download/FB9039BE-E865-4EF1-BFB3-01C4D83C6546",
    "operatingArea": "Zgodnie z koncesją nr DEE/228/18728/W/2/2009/MZn",
    "coordinates": [
      49.834636672582334,
      18.59171026718025
    ],
    "dataType": "OPERATOR",
    "category": "intermediary",
    "subcategory": "Operatorzy systemów"
  },
  {
    "id": "OPERATOR_878_177",
    "name": "Veolia Wschód Sp. z o.o.",
    "address": "ul. Hrubieszowska 173",
    "postalCode": "22-400",
    "city": "Zamość",
    "province": "lubelskie",
    "county": "zamojski",
    "municipality": "Zamość",
    "installationType": "OSDe",
    "operatorTypeDesc": "Operator systemu dystrybucyjnego elektroenergetycznego",
    "registrationDate": "2017-06-13",
    "validFrom": "2017-08-01",
    "validTo": "2029-08-01",
    "regon": "950016528",
    "nip": "9220003465",
    "fileUrl": "https://api.ure.gov.pl/api/ConcessionFuel/download/7683D263-DF3F-43C2-B86D-1049322C00E0",
    "operatingArea": "Zgodnie z koncesją nr DEE/371/878/W/OKR/2017/MGi",
    "coordinates": [
      50.72361390800411,
      23.252101990989264
    ],
    "dataType": "OPERATOR",
    "category": "intermediary",
    "subcategory": "Operatorzy systemów"
  },
  {
    "id": "OPERATOR_207_178",
    "name": "Węglokoks Energia ZCP Sp. z o.o.",
    "address": "ul. Szyb Walenty 32",
    "postalCode": "41-700",
    "city": "Ruda Śląska",
    "province": "śląskie",
    "county": "bieruńsko-lędziński",
    "municipality": "Ruda Śląska",
    "installationType": "OSDe",
    "operatorTypeDesc": "Operator systemu dystrybucyjnego elektroenergetycznego",
    "registrationDate": "2017-04-24",
    "validFrom": "2017-04-28",
    "validTo": "2027-04-28",
    "regon": "272661854",
    "nip": "6411006444",
    "fileUrl": "https://api.ure.gov.pl/api/ConcessionFuel/download/E803AEA4-B967-449F-BDA7-4AE09213F229",
    "operatingArea": "Zgodnie z koncesją nr DEE/369/207/W/OKA/2017/PS",
    "coordinates": [
      50.25802946476196,
      18.85684833917772
    ],
    "dataType": "OPERATOR",
    "category": "intermediary",
    "subcategory": "Operatorzy systemów"
  },
  {
    "id": "OPERATOR_24732_179",
    "name": "Wind Field Korytnica Spółka z ograniczoną odpowiedzialnością",
    "address": "ul. Prosta 51",
    "postalCode": "00-838",
    "city": "Warszawa",
    "province": "mazowieckie",
    "county": "warszawski",
    "municipality": "Warszawa",
    "installationType": "OSDe",
    "operatorTypeDesc": "Operator systemu dystrybucyjnego elektroenergetycznego",
    "registrationDate": "2020-03-20",
    "validFrom": "2020-04-07",
    "validTo": "2030-12-31",
    "regon": "141886129",
    "nip": "5222929880",
    "fileUrl": "https://api.ure.gov.pl/api/ConcessionFuel/download/5D9E2375-398C-41DC-8FE9-78AE3B53F722",
    "operatingArea": "Zgodnie z koncesją nr DEE/400/24732/W/OLO/2019/KK",
    "coordinates": [
      52.22989148467384,
      21.012975521732752
    ],
    "dataType": "OPERATOR",
    "category": "intermediary",
    "subcategory": "Operatorzy systemów"
  },
  {
    "id": "OPERATOR_26440_180",
    "name": "WIND SERVICE DYSTRYBUCJA Sp. z o.o.",
    "address": "ul. Gotarda 9",
    "postalCode": "02-683",
    "city": "Warszawa",
    "province": "mazowieckie",
    "county": "warszawski",
    "municipality": "Warszawa",
    "installationType": "OSDe",
    "operatorTypeDesc": "Operator systemu dystrybucyjnego elektroenergetycznego",
    "registrationDate": "2015-12-21",
    "validFrom": "2015-12-22",
    "validTo": "2030-12-31",
    "regon": "142157906",
    "nip": "5213548032",
    "fileUrl": "https://api.ure.gov.pl/api/ConcessionFuel/download/DE06A8CB-F469-4A14-AC48-67DC3D4C3D41",
    "operatingArea": "Zgodnie z koncesją nr DEE/360/26440/W/DRE/2015/MFr",
    "coordinates": [
      52.228881977209156,
      21.01127567025632
    ],
    "dataType": "OPERATOR",
    "category": "intermediary",
    "subcategory": "Operatorzy systemów"
  },
  {
    "id": "OPERATOR_770_181",
    "name": "Wytwórnia Sprzętu Komunikacyjnego \"PZL-Świdnik\" S.A.",
    "address": "Al. Lotników Polskich 1",
    "postalCode": "21-045",
    "city": "Świdnik",
    "province": "lubelskie",
    "county": "świdnicki",
    "municipality": "Świdnik",
    "installationType": "OSDe",
    "operatorTypeDesc": "Operator systemu dystrybucyjnego elektroenergetycznego",
    "registrationDate": "2014-01-09",
    "validFrom": "2014-04-01",
    "validTo": "2033-02-01",
    "regon": "004207330",
    "nip": "7130005502",
    "fileUrl": "https://api.ure.gov.pl/api/ConcessionFuel/download/692D93E6-102B-45B5-809C-D164D89381E8",
    "operatingArea": "Zgodnie z koncesją nr DEE/311/770/W/OLB/2013/ASZ",
    "coordinates": [
      51.22009142197042,
      22.69987213014019
    ],
    "dataType": "OPERATOR",
    "category": "intermediary",
    "subcategory": "Operatorzy systemów"
  },
  {
    "id": "OPERATOR_70443_182",
    "name": "ZAEL-DYSTRYBUCJA 2 Sp. z o.o.",
    "address": "ul. Grabiszyńska 163 / 510",
    "postalCode": "53-439",
    "city": "Wrocław",
    "province": "dolnośląskie",
    "county": "wrocławski",
    "municipality": "Wrocław",
    "installationType": "OSDe",
    "operatorTypeDesc": "Operator systemu dystrybucyjnego elektroenergetycznego",
    "registrationDate": "2024-10-30",
    "validFrom": "2025-01-01",
    "validTo": "2040-12-31",
    "regon": "521841029",
    "nip": "8943185454",
    "fileUrl": "https://api.ure.gov.pl/api/ConcessionFuel/download/725A056C-9C17-4FB6-80F0-4A7B9DA57828",
    "operatingArea": "Zgodnie z koncesją nr DEE/461/70443/W/OWR/2024/KKu3",
    "coordinates": [
      51.107868453186924,
      17.039098020623754
    ],
    "dataType": "OPERATOR",
    "category": "intermediary",
    "subcategory": "Operatorzy systemów"
  },
  {
    "id": "OPERATOR_1381_183",
    "name": "Zakład Dostaw Nośników Energetycznych sp. z o.o.",
    "address": "ul. Przemysłowa 1",
    "postalCode": "44-203",
    "city": "Rybnik",
    "province": "śląskie",
    "county": "rybnicki",
    "municipality": "Rybnik",
    "installationType": "OSDe",
    "operatorTypeDesc": "Operator systemu dystrybucyjnego elektroenergetycznego",
    "registrationDate": "2012-03-12",
    "validFrom": "2012-07-01",
    "validTo": "2028-12-31",
    "regon": "272109163",
    "nip": "6420029539",
    "fileUrl": "https://api.ure.gov.pl/api/ConcessionFuel/download/83AC1FDF-88CA-473B-89FD-87DE389B2ECB",
    "operatingArea": "Zgodnie z koncesją nr PEE/25/1381/U/OT-2/98/RK",
    "coordinates": [
      50.0962173751111,
      18.54604692834514
    ],
    "dataType": "OPERATOR",
    "category": "intermediary",
    "subcategory": "Operatorzy systemów"
  },
  {
    "id": "OPERATOR_25009_184",
    "name": "Zakład Energetyczny Użyteczności Publicznej Spółka Akcyjna",
    "address": "ul. Radzymińska 326",
    "postalCode": "05-091",
    "city": "Ząbki",
    "province": "mazowieckie",
    "county": "wołomiński",
    "municipality": "Ząbki",
    "installationType": "OSDe",
    "operatorTypeDesc": "Operator systemu dystrybucyjnego elektroenergetycznego",
    "registrationDate": "2016-12-05",
    "validFrom": "2017-02-01",
    "validTo": "2030-12-31",
    "regon": "361430554",
    "nip": "1251633358",
    "fileUrl": "https://api.ure.gov.pl/api/ConcessionFuel/download/B3907474-58DF-411F-92AC-07734CF01D90",
    "operatingArea": "Zgodnie z koncesją nr DEE/363/25009/W/OŁO/2016/KK",
    "coordinates": [
      52.29397908407843,
      21.116453516237907
    ],
    "dataType": "OPERATOR",
    "category": "intermediary",
    "subcategory": "Operatorzy systemów"
  },
  {
    "id": "OPERATOR_417_185",
    "name": "Zakład Energetyki Cieplnej Sp. z o.o.",
    "address": "ul. Słowińska 1",
    "postalCode": "78-200",
    "city": "Białogard",
    "province": "zachodniopomorskie",
    "county": "białogardzki",
    "municipality": "Białogard",
    "installationType": "OSDe",
    "operatorTypeDesc": "Operator systemu dystrybucyjnego elektroenergetycznego",
    "registrationDate": "2020-04-29",
    "validFrom": "2020-06-01",
    "validTo": "2029-06-06",
    "regon": "330978463",
    "nip": "6720006324",
    "fileUrl": "https://api.ure.gov.pl/api/ConcessionFuel/download/B921E0EB-6362-4A40-A932-F341A83E9C11",
    "operatingArea": "Zgodnie z koncesją nr DEE/395/417/W/OSZ/2019/APo1",
    "coordinates": [
      54.00740586674184,
      15.987968344171362
    ],
    "dataType": "OPERATOR",
    "category": "intermediary",
    "subcategory": "Operatorzy systemów"
  },
  {
    "id": "OPERATOR_40_186",
    "name": "Zakład Energoelektryczny ENERGO-STIL Sp. z o.o.",
    "address": "ul. Walczaka 25",
    "postalCode": "66-400",
    "city": "Gorzów Wielkopolski",
    "province": "lubuskie",
    "county": "gorzowski",
    "municipality": "Gorzów Wielkopolski",
    "installationType": "OSDe",
    "operatorTypeDesc": "Operator systemu dystrybucyjnego elektroenergetycznego",
    "registrationDate": "2011-06-24",
    "validFrom": "2011-09-01",
    "validTo": "2030-12-31",
    "regon": "210442221",
    "nip": "5992277261",
    "fileUrl": "https://api.ure.gov.pl/api/ConcessionFuel/download/1E6B4674-0586-4167-B09C-B095609DA6F7",
    "operatingArea": "Zgodnie z koncesją nr PEE/50/40/W/1/98/MS",
    "coordinates": [
      52.73308834888761,
      15.23627674949829
    ],
    "dataType": "OPERATOR",
    "category": "intermediary",
    "subcategory": "Operatorzy systemów"
  },
  {
    "id": "OPERATOR_13482_187",
    "name": "Zakład Instalacji Elektroenergetycznych Leszek Klak",
    "address": "ul. Witkiewicza 25",
    "postalCode": "63-100",
    "city": "Śrem",
    "province": "wielkopolskie",
    "county": "śremski",
    "municipality": "Śrem",
    "installationType": "OSDe",
    "operatorTypeDesc": "Operator systemu dystrybucyjnego elektroenergetycznego",
    "registrationDate": "2012-02-13",
    "validFrom": "2012-04-01",
    "validTo": "2040-12-31",
    "regon": "630179126",
    "nip": "7850010655",
    "fileUrl": "https://api.ure.gov.pl/api/ConcessionFuel/download/AFC15CA3-F700-4FAB-BBDE-DB27643EC849",
    "operatingArea": "Zgodnie z koncesją nr DEE/3/13482/W/2/2005/BP",
    "coordinates": [
      52.40767064830196,
      16.933934952501588
    ],
    "dataType": "OPERATOR",
    "category": "intermediary",
    "subcategory": "Operatorzy systemów"
  },
  {
    "id": "OPERATOR_4136_188",
    "name": "Zakład Usług Technicznych MEGA Spółka z ograniczoną odpowiedzialnością",
    "address": "ul. Hetmańska 15L",
    "postalCode": "82-300",
    "city": "Elbląg",
    "province": "warmińsko-mazurskie",
    "county": "elbląski",
    "municipality": "Elbląg",
    "installationType": "OSDe",
    "operatorTypeDesc": "Operator systemu dystrybucyjnego elektroenergetycznego",
    "registrationDate": "2011-06-01",
    "validFrom": "2011-07-01",
    "validTo": "2030-12-31",
    "regon": "170779365",
    "nip": "5782593866",
    "fileUrl": "https://api.ure.gov.pl/api/ConcessionFuel/download/ED0398D8-58E4-4796-9967-A232E547D118",
    "operatingArea": "Zgodnie z koncesją nr PEE/258/4136/W/1/2002/BT",
    "coordinates": [
      54.155745962529615,
      19.408976528657682
    ],
    "dataType": "OPERATOR",
    "category": "intermediary",
    "subcategory": "Operatorzy systemów"
  },
  {
    "id": "OPERATOR_1445_189",
    "name": "Zakład Usług Technicznych Spółka z ograniczoną odpowiedzialnością",
    "address": "ul. Bieszczadzka 5",
    "postalCode": "38-540",
    "city": "Zagórz",
    "province": "podkarpackie",
    "county": "sanocki",
    "municipality": "Zagórz",
    "installationType": "OSDe",
    "operatorTypeDesc": "Operator systemu dystrybucyjnego elektroenergetycznego",
    "registrationDate": "2011-01-12",
    "validFrom": "2011-03-01",
    "validTo": "2028-12-31",
    "regon": "370269712",
    "nip": "6871004553",
    "fileUrl": "https://api.ure.gov.pl/api/ConcessionFuel/download/C5CEA406-8F68-4603-88A6-DBBC100D57E3",
    "operatingArea": "Zgodnie z koncesją nr PEE/99/1445/U/OT3/98/RW",
    "coordinates": [
      49.847765021517404,
      22.139221386789202
    ],
    "dataType": "OPERATOR",
    "category": "intermediary",
    "subcategory": "Operatorzy systemów"
  },
  {
    "id": "OPERATOR_3473_190",
    "name": "Zakłady Chemiczne \"Siarkopol\" Tarnobrzeg Spółka z ograniczoną odpowiedzialnością",
    "address": "ul. Chemiczna 3",
    "postalCode": "39-400",
    "city": "Tarnobrzeg",
    "province": "podkarpackie",
    "county": "tarnobrzeski",
    "municipality": "Tarnobrzeg",
    "installationType": "OSDe",
    "operatorTypeDesc": "Operator systemu dystrybucyjnego elektroenergetycznego",
    "registrationDate": "2012-05-30",
    "validFrom": "2012-09-01",
    "validTo": "2031-11-30",
    "regon": "831220876",
    "nip": "8671993417",
    "fileUrl": "https://api.ure.gov.pl/api/ConcessionFuel/download/EFCB979E-4859-419B-8067-13C0456A777D",
    "operatingArea": "Zgodnie z koncesją nr PEE/243/3473/W/2/2001/AS",
    "coordinates": [
      50.574059732631234,
      21.678730112613938
    ],
    "dataType": "OPERATOR",
    "category": "intermediary",
    "subcategory": "Operatorzy systemów"
  },
  {
    "id": "OPERATOR_605_191",
    "name": "Zakłady Górniczo-Hutnicze \"Bolesław\" S.A.",
    "address": "ul. Kolejowa 37",
    "postalCode": "32-332",
    "city": "Bukowno",
    "province": "małopolskie",
    "county": "olkuski",
    "municipality": "Radzanów",
    "installationType": "OSDe",
    "operatorTypeDesc": "Operator systemu dystrybucyjnego elektroenergetycznego",
    "registrationDate": "2011-05-05",
    "validFrom": "2011-07-01",
    "validTo": "2030-12-31",
    "regon": "000026904",
    "nip": "6370102196",
    "fileUrl": "https://api.ure.gov.pl/api/ConcessionFuel/download/9BED9A41-A6F8-4375-AB02-D1E6340E5581",
    "operatingArea": "Zgodnie z koncesją nr DEE/84/605/W/OKR/2008/JM",
    "coordinates": [
      49.72292954022714,
      20.25473759584768
    ],
    "dataType": "OPERATOR",
    "category": "intermediary",
    "subcategory": "Operatorzy systemów"
  },
  {
    "id": "OPERATOR_676_192",
    "name": "Zakłady Mechaniczne \"Bumar-Łabędy\" SA",
    "address": "ul. Mechaników 9",
    "postalCode": "44-109",
    "city": "Gliwice",
    "province": "śląskie",
    "county": "gliwicki",
    "municipality": "Gliwice",
    "installationType": "OSDe",
    "operatorTypeDesc": "Operator systemu dystrybucyjnego elektroenergetycznego",
    "registrationDate": "2022-10-28",
    "validFrom": "2022-11-15",
    "validTo": "2028-11-15",
    "regon": "271829754",
    "nip": "6310102011",
    "fileUrl": "",
    "operatingArea": "ZAMKNIĘTY SYSTEM DYSTRYBUCYJNY",
    "coordinates": [
      50.293526355409604,
      18.67170733034145
    ],
    "dataType": "OPERATOR",
    "category": "intermediary",
    "subcategory": "Operatorzy systemów"
  },
  {
    "id": "OPERATOR_676_193",
    "name": "Zakłady Mechaniczne \"Bumar-Łabędy\" SA",
    "address": "ul. Mechaników 9",
    "postalCode": "44-109",
    "city": "Gliwice",
    "province": "śląskie",
    "county": "gliwicki",
    "municipality": "Gliwice",
    "installationType": "OSDe",
    "operatorTypeDesc": "Operator systemu dystrybucyjnego elektroenergetycznego",
    "registrationDate": "2011-03-18",
    "validFrom": "2011-06-01",
    "validTo": "2028-12-15",
    "regon": "271829754",
    "nip": "6310102011",
    "fileUrl": "https://api.ure.gov.pl/api/ConcessionFuel/download/528E0128-C256-4A6E-9891-DE412710A131",
    "operatingArea": "Zgodnie z koncesją nr PEE/74/676/U/OT-2/98/HM",
    "coordinates": [
      50.294585564029944,
      18.672263003584426
    ],
    "dataType": "OPERATOR",
    "category": "intermediary",
    "subcategory": "Operatorzy systemów"
  },
  {
    "id": "OPERATOR_1081_194",
    "name": "Zakłady Tworzyw Sztucznych \"Izo-Erg\" sp. z o.o.",
    "address": "ul. Śliwki 86",
    "postalCode": "44-100",
    "city": "Gliwice",
    "province": "śląskie",
    "county": "gliwicki",
    "municipality": "Gliwice",
    "installationType": "OSDe",
    "operatorTypeDesc": "Operator systemu dystrybucyjnego elektroenergetycznego",
    "registrationDate": "2011-11-02",
    "validFrom": "2011-12-01",
    "validTo": "2030-09-21",
    "regon": "271555222",
    "nip": "6310000517",
    "fileUrl": "https://api.ure.gov.pl/api/ConcessionFuel/download/EA6F974D-AF88-4492-B21C-AB22C3185548",
    "operatingArea": "Zgodnie z koncesją nr DEE/280/1081/W/OKA/2010/KT",
    "coordinates": [
      50.294531182684665,
      18.671508344805936
    ],
    "dataType": "OPERATOR",
    "category": "intermediary",
    "subcategory": "Operatorzy systemów"
  },
  {
    "id": "OPERATOR_6562_195",
    "name": "ZAMET-Budowa Maszyn S.A.",
    "address": "ul. Zagórska 83",
    "postalCode": "42-680",
    "city": "Tarnowskie Góry",
    "province": "śląskie",
    "county": "tarnogórski",
    "municipality": "Tarnowskie Góry",
    "installationType": "OSDe",
    "operatorTypeDesc": "Operator systemu dystrybucyjnego elektroenergetycznego",
    "registrationDate": "2010-12-13",
    "validFrom": "2010-12-13",
    "validTo": "2039-08-11",
    "regon": "273892780",
    "nip": "6452146461",
    "fileUrl": "https://api.ure.gov.pl/api/ConcessionFuel/download/EE280D90-C93F-41E4-9666-8BFE832205EE",
    "operatingArea": "Zgodnie z koncesją nr DEE/325/6562/W/DRE/2014/BT",
    "coordinates": [
      50.264805068979356,
      19.024287970836145
    ],
    "dataType": "OPERATOR",
    "category": "intermediary",
    "subcategory": "Operatorzy systemów"
  },
  {
    "id": "OPERATOR_65483_196",
    "name": "ZARMEN GPP Sp. z o.o.",
    "address": "ul. Chłodna 51",
    "postalCode": "00-867",
    "city": "Warszawa",
    "province": "mazowieckie",
    "county": "warszawski",
    "municipality": "Warszawa",
    "installationType": "OSDe",
    "operatorTypeDesc": "Operator systemu dystrybucyjnego elektroenergetycznego",
    "registrationDate": "2022-12-29",
    "validFrom": "2023-01-01",
    "validTo": "2032-10-26",
    "regon": "361605048",
    "nip": "5272737415",
    "fileUrl": "https://api.ure.gov.pl/api/ConcessionFuel/download/8F02ED2C-B968-4DEB-9CAF-DBD191D510CB",
    "operatingArea": "Zgodnie z koncesją nr DEE/437/65483/W/OŁO/2022/MRo",
    "coordinates": [
      52.23062218226187,
      21.01128593632239
    ],
    "dataType": "OPERATOR",
    "category": "intermediary",
    "subcategory": "Operatorzy systemów"
  },
  {
    "id": "OPERATOR_827_197",
    "name": "Zarząd Morskich Portów Szczecin i Świnoujście S.A.",
    "address": "ul. Bytomska 7",
    "postalCode": "70-603",
    "city": "Szczecin",
    "province": "zachodniopomorskie",
    "county": "szczeciński",
    "municipality": "Szczecin",
    "installationType": "OSDe",
    "operatorTypeDesc": "Operator systemu dystrybucyjnego elektroenergetycznego",
    "registrationDate": "2012-03-21",
    "validFrom": "2012-05-20",
    "validTo": "2030-05-17",
    "regon": "811649448",
    "nip": "9551889161",
    "fileUrl": "https://api.ure.gov.pl/api/ConcessionFuel/download/153498F8-ECED-4F97-BD51-6B97B72B9CC4",
    "operatingArea": "Zgodnie z koncesją nr DEE/246/827/W/OSZ/2010/BO",
    "coordinates": [
      53.42804802238068,
      14.553480950858948
    ],
    "dataType": "OPERATOR",
    "category": "intermediary",
    "subcategory": "Operatorzy systemów"
  },
  {
    "id": "OPERATOR_1064_198",
    "name": "Zarząd Morskiego Portu Gdańsk S.A.",
    "address": "ul. Zamknięta 18",
    "postalCode": "80-955",
    "city": "Gdańsk",
    "province": "pomorskie",
    "county": "gdański",
    "municipality": "Gdańsk",
    "installationType": "OSDe",
    "operatorTypeDesc": "Operator systemu dystrybucyjnego elektroenergetycznego",
    "registrationDate": "2020-05-06",
    "validFrom": "2020-05-21",
    "validTo": "2030-12-31",
    "regon": "191478408",
    "nip": "5832461866",
    "fileUrl": "https://api.ure.gov.pl/api/ConcessionFuel/download/21A5DC77-032B-4C72-9574-115372789794",
    "operatingArea": "Zgodnie z koncesją nr DEE/409/1064/W/DRE/2020/KCh",
    "coordinates": [
      54.35150935952354,
      18.64716921659264
    ],
    "dataType": "OPERATOR",
    "category": "intermediary",
    "subcategory": "Operatorzy systemów"
  },
  {
    "id": "OPERATOR_1064_199",
    "name": "Zarząd Morskiego Portu Gdańsk S.A.",
    "address": "ul. Zamknięta 18",
    "postalCode": "80-955",
    "city": "Gdańsk",
    "province": "pomorskie",
    "county": "gdański",
    "municipality": "Gdańsk",
    "installationType": "OSDe",
    "operatorTypeDesc": "Operator systemu dystrybucyjnego elektroenergetycznego",
    "registrationDate": "2023-02-28",
    "validFrom": "2023-03-15",
    "validTo": "2030-12-31",
    "regon": "191478408",
    "nip": "5832461866",
    "fileUrl": "https://api.ure.gov.pl/api/ConcessionFuel/download/47C80B4B-E8B0-4908-8297-D8A54FEFF104",
    "operatingArea": "Zgodnie z koncesją nr PEE/209/1064/W/3/2000/MJ",
    "coordinates": [
      54.352050644140995,
      18.64583975922214
    ],
    "dataType": "OPERATOR",
    "category": "intermediary",
    "subcategory": "Operatorzy systemów"
  },
  {
    "id": "OPERATOR_1608_200",
    "name": "Zarząd Morskiego Portu Gdynia S.A.",
    "address": "ul. Rotterdamska 9",
    "postalCode": "81-337",
    "city": "Gdynia",
    "province": "pomorskie",
    "county": "gdyński",
    "municipality": "Gdynia",
    "installationType": "OSDe",
    "operatorTypeDesc": "Operator systemu dystrybucyjnego elektroenergetycznego",
    "registrationDate": "2010-12-30",
    "validFrom": "2011-02-01",
    "validTo": "2025-12-31",
    "regon": "191920577",
    "nip": "9581323524",
    "fileUrl": "https://api.ure.gov.pl/api/ConcessionFuel/download/0A99D0EE-C6F3-4DCE-B393-984B0BFE269D",
    "operatingArea": "Zgodnie z koncesją nr DEE/25/1608/W/2/2006/MB",
    "coordinates": [
      54.51986191970018,
      18.52964075212779
    ],
    "dataType": "OPERATOR",
    "category": "intermediary",
    "subcategory": "Operatorzy systemów"
  },
  {
    "id": "OPERATOR_864_201",
    "name": "ZEM Łabędy Sp. z o.o.",
    "address": "ul. Anny Jagiellonki 45",
    "postalCode": "44-109",
    "city": "Gliwice",
    "province": "śląskie",
    "county": "gliwicki",
    "municipality": "Gliwice",
    "installationType": "OSDe",
    "operatorTypeDesc": "Operator systemu dystrybucyjnego elektroenergetycznego",
    "registrationDate": "2013-10-16",
    "validFrom": "2014-01-01",
    "validTo": "2030-12-31",
    "regon": "276524522",
    "nip": "9691193005",
    "fileUrl": "https://api.ure.gov.pl/api/ConcessionFuel/download/C07FE1F4-9610-4970-B7EF-B8B1EA60886D",
    "operatingArea": "Zgodnie z koncesją nr PEE/186/864/W/1/2/99/AS",
    "coordinates": [
      50.29514179510468,
      18.67096594621959
    ],
    "dataType": "OPERATOR",
    "category": "intermediary",
    "subcategory": "Operatorzy systemów"
  },
  {
    "id": "OPERATOR_42_202",
    "name": "Zespół Elektrowni Wodnych Niedzica Spółka Akcyjna",
    "address": "ul. Widokowa 1",
    "postalCode": "34-441",
    "city": "Niedzica",
    "province": "małopolskie",
    "county": "nowotarski",
    "municipality": "Łapsze Niżne",
    "installationType": "OSDe",
    "operatorTypeDesc": "Operator systemu dystrybucyjnego elektroenergetycznego",
    "registrationDate": "2011-01-28",
    "validFrom": "2011-03-01",
    "validTo": "2030-12-31",
    "regon": "490785702",
    "nip": "7352055446",
    "fileUrl": "https://api.ure.gov.pl/api/ConcessionFuel/download/1753D7DA-438C-4393-A3EB-9F888B78D9A5",
    "operatingArea": "Zgodnie z koncesją nr PEE/188/42/W/1/2/99/MS",
    "coordinates": [
      49.72281514130144,
      20.254923171715685
    ],
    "dataType": "OPERATOR",
    "category": "intermediary",
    "subcategory": "Operatorzy systemów"
  }
]